{"linkedin_internal_id": "1259", "description": "This account discusses mainly (but not exclusively) the activities of Tech Foundations - the Atos Group business line leading in managed services, focusing on hybrid cloud & infrastructure, employee experience and technology services, through decarbonized, automated and AI-enabled solutions.\n\nEviden designs the scope composed of Atos\u2019 digital, cloud, big data and security business lines. It will be a global leader in data-driven, trusted and sustainable digital transformation. Visit Eviden: https://www.linkedin.com/company/eviden/ and eviden.com\n\nAtos is a global leader in digital transformation with 95,000 employees and annual revenue of c. \u20ac11 billion. European number one in cybersecurity, cloud and high-performance computing, the Group provides tailored end-to-end solutions for all industries in 69 countries. A pioneer in decarbonization services and products, Atos is committed to a secure and decarbonized digital for its clients Atos is a SE (Societas Europaea), listed on Euronext Paris.\n\nThe purpose of Atos is to help design the future of the information space. Its expertise and services support the development of knowledge, education and research in a multicultural approach and contribute to the development of scientific and technological excellence. Across the world, the Group enables its customers and employees, and members of societies at large to live, work and develop sustainably, in a safe and secure information space.", "website": "https://www.atos.net", "industry": "IT Services and IT Consulting", "company_size": [10001, null], "company_size_on_linkedin": 84999, "hq": {"country": "FR", "city": "95877 Bezons", "postal_code": null, "line_1": "80 Quai Voltaire", "is_hq": true, "state": null}, "company_type": "PUBLIC_COMPANY", "founded_year": null, "specialities": ["Digital Workplace", "Employee Experience", "Technology Consultancy", "Cloud", "Data Analytics", "Artificial Intelligence", "Sports", "Major Events", "Integration Services", "Digital Transformation", "Digital", "Mainframe", "Networks"], "locations": [{"country": "FR", "city": "95877 Bezons", "postal_code": null, "line_1": "80 Quai Voltaire", "is_hq": true, "state": null}, {"country": "GB", "city": "London", "postal_code": "NW1 3HG", "line_1": "71 High Holborn London WC1V 6EA Second Floor, MidCity Place", "is_hq": false, "state": null}, {"country": "DE", "city": "M\u00fcnchen", "postal_code": "81739", "line_1": "Otto-Hahn-Ring 6", "is_hq": false, "state": null}, {"country": "NL", "city": "Amstelveen", "postal_code": "1185 MC", "line_1": "Burgemeester Rijnderslaan 30", "is_hq": false, "state": "Noord Holland"}, {"country": "IT", "city": "Milan", "postal_code": "20153", "line_1": "Via Caldera 21 C/1", "is_hq": false, "state": "Italy"}, {"country": "MX", "city": "Cuauhtemoc", "postal_code": "06600", "line_1": "Sevilla 9", "is_hq": false, "state": "CDMX"}, {"country": "SG", "city": "Singapore", "postal_code": "319002", "line_1": "988 Toa Payoh N", "is_hq": false, "state": "Singapore"}, {"country": "ES", "city": "Barcelona", "postal_code": "08020", "line_1": "Carrer de Pere IV, 301", "is_hq": false, "state": "Catalonia"}, {"country": "MX", "city": "San Nicolas de los Garza", "postal_code": "66499", "line_1": "Calle del Encino 770", "is_hq": false, "state": "NL"}, {"country": "IN", "city": "Pune", "postal_code": "411021", "line_1": "Sutarwadi Road", "is_hq": false, "state": "Maharashtra"}, {"country": "IN", "city": "Bengaluru", "postal_code": "560037", "line_1": "Whitefield Road", "is_hq": false, "state": "Karnataka"}, {"country": "PL", "city": "Warsaw", "postal_code": "02-672", "line_1": "ulica Postepu 18", "is_hq": false, "state": "MA"}, {"country": "US", "city": "Irving", "postal_code": "75063", "line_1": "4851 Regent Blvd", "is_hq": false, "state": "TX"}, {"country": "PL", "city": "Bydgoszcz", "postal_code": "85-240", "line_1": "ulica Jozefa Ignacego Kraszewskiego 1", "is_hq": false, "state": "KP"}, {"country": "MA", "city": "Casablanca", "postal_code": null, "line_1": "7 Boulevard Al Qods", "is_hq": false, "state": "Casablanca - Settat"}, {"country": "IN", "city": "Mumbai", "postal_code": "400083", "line_1": "Lal Bahadur Shastri Marg", "is_hq": false, "state": "Maharashtra"}, {"country": "ES", "city": "Madrid", "postal_code": "28037", "line_1": "Calle Albarracin, 25", "is_hq": false, "state": "Community of Madrid"}, {"country": "IT", "city": "Milan", "postal_code": "20153", "line_1": "Via Caldera, 21", "is_hq": false, "state": "Lomb."}, {"country": "FR", "city": "Aix-en-Provence", "postal_code": "13290", "line_1": "1330 Rue Guillibert Gautier de la Lauziere", "is_hq": false, "state": "PACA"}, {"country": "PL", "city": "Wroclaw", "postal_code": "51-114", "line_1": "ulica Wolowska 10", "is_hq": false, "state": "DS"}, {"country": "PH", "city": "Quezon City", "postal_code": null, "line_1": "Eastwood Ave 1880", "is_hq": false, "state": "National Capital Region"}, {"country": "ES", "city": "Barcelona", "postal_code": "08020", "line_1": "Carrer de Pere IV, 291", "is_hq": false, "state": "Catalonia"}, {"country": "RO", "city": "Timisoara", "postal_code": "300763", "line_1": "Strada Mures 116", "is_hq": false, "state": "Timis"}, {"country": "BR", "city": "S\u00e3o Paulo", "postal_code": "04578-000", "line_1": "Avenida Na\u00e7\u00f5es Unidas 12901 - Brooklin Torre Norte - 19\u00ba Andar", "is_hq": false, "state": "SP"}, {"country": "BR", "city": "Londrina", "postal_code": "86027-750", "line_1": "Av. Theodoro Victorelli, 150 - Carlota Shopping Boulevard - Londrina", "is_hq": false, "state": "Paran\u00e1"}, {"country": "EG", "city": "Cairo", "postal_code": "11771", "line_1": "2 Ali Rashed City Stars Heliopolis, Star Capital (4), 7th Floor", "is_hq": false, "state": null}, {"country": "SA", "city": "Riyadh", "postal_code": "12214", "line_1": "9033 King Fahd Road, Olaya District 15th Floor, Princess Al Anoud Tower2 P.O.box: 2370", "is_hq": false, "state": null}, {"country": "AE", "city": "Dubai", "postal_code": null, "line_1": "Sheikh Zayed Road Atos Origin FZ LLC, Dubai Branch, The One Tower, 31st Floor Sheikh Zayed Road, Barsha Heights Tecom, PO Box 500437", "is_hq": false, "state": null}, {"country": "TR", "city": "Istanbul", "postal_code": "34732", "line_1": "Merdivenk\u00f6y Mah. Yumurtac\u0131 Abdibey Cad. Business Istanbul B Blok, Merdivenk\u00f6y Mah. Yumurtac\u0131 Abdibey Cad. Dikyol Sok. No:2A Kat:5", "is_hq": false, "state": null}, {"country": "BG", "city": "Sofia", "postal_code": null, "line_1": null, "is_hq": false, "state": null}, {"country": "FI", "city": "Helsinki", "postal_code": "00130", "line_1": "Fabianinkatu 23", "is_hq": false, "state": "Uusimaa"}, {"country": "DK", "city": "Albertslund", "postal_code": "2620", "line_1": "Stensmosevej 15", "is_hq": false, "state": "Capital Region"}, {"country": "EE", "city": "Kristiine", "postal_code": "10616", "line_1": "Keemia 4", "is_hq": false, "state": "Harjumaa"}, {"country": "SE", "city": "Solna Sverige", "postal_code": "16967", "line_1": "R\u00e5sundav\u00e4gen 2-4", "is_hq": false, "state": "Solna Sverige"}], "name": "Atos", "tagline": "Advancing what matters", "universal_name_id": "atos", "profile_pic_url": "https://s3.us-west-000.backblazeb2.com/proxycurl/company/atos/profile?X-Amz-Algorithm=AWS4-HMAC-SHA256&X-Amz-Credential=0004d7f56a0400b0000000001%2F20241120%2Fus-west-000%2Fs3%2Faws4_request&X-Amz-Date=20241120T045018Z&X-Amz-Expires=3600&X-Amz-SignedHeaders=host&X-Amz-Signature=d874354fc7ea3c433e7d77081d218e0045cc6fac5cbc3da5ca31fe3c65f8f56a", "background_cover_image_url": "https://s3.us-west-000.backblazeb2.com/proxycurl/company/atos/cover?X-Amz-Algorithm=AWS4-HMAC-SHA256&X-Amz-Credential=0004d7f56a0400b0000000001%2F20241120%2Fus-west-000%2Fs3%2Faws4_request&X-Amz-Date=20241120T045018Z&X-Amz-Expires=3600&X-Amz-SignedHeaders=host&X-Amz-Signature=5ffd39795055b18745ad8e7b386933a19a471cb193433bdd6a2bf4e1ffb9bc90", "search_id": "1259", "similar_companies": [{"name": "Eviden", "link": "https://fr.linkedin.com/company/eviden", "industry": "IT Services and IT Consulting", "location": "Bezons, FRANCE"}, {"name": "Capgemini", "link": "https://fr.linkedin.com/company/capgemini", "industry": "IT Services and IT Consulting", "location": "Paris, France"}, {"name": "Atos Syntel", "link": "https://www.linkedin.com/company/atos-syntel", "industry": "IT Services and IT Consulting", "location": "Troy, Michigan"}, {"name": "Deloitte", "link": "https://www.linkedin.com/company/deloitte", "industry": "Business Consulting and Services", "location": null}, {"name": "Accenture", "link": "https://ie.linkedin.com/company/accenture", "industry": "Business Consulting and Services", "location": null}, {"name": "Tata Consultancy Services", "link": "https://in.linkedin.com/company/tata-consultancy-services", "industry": "IT Services and IT Consulting", "location": "Mumbai, Maharashtra"}, {"name": "IBM", "link": "https://www.linkedin.com/company/ibm", "industry": "IT Services and IT Consulting", "location": "Armonk, New York, NY"}, {"name": "Cognizant", "link": "https://www.linkedin.com/company/cognizant", "industry": "IT Services and IT Consulting", "location": "Teaneck, New Jersey"}, {"name": "Wipro", "link": "https://in.linkedin.com/company/wipro", "industry": "IT Services and IT Consulting", "location": "Bangalore, Karnataka"}, {"name": "EY", "link": "https://uk.linkedin.com/company/ernstandyoung", "industry": "IT Services and IT Consulting", "location": null}], "affiliated_companies": [{"name": "Unify", "link": "https://de.linkedin.com/company/unifyco", "industry": "IT Services and IT Consulting", "location": "Munich, Bavaria"}, {"name": "Atos NextGen Careers", "link": "https://fr.linkedin.com/showcase/atos-campus/", "industry": "IT Services and IT Consulting", "location": "Bezons, \u00cele-de-France"}, {"name": "Social Collaboration", "link": "https://fr.linkedin.com/showcase/atos-social-collaboration/", "industry": "Information Technology & Services", "location": "Paris, Bezons"}, {"name": "Atos Health & Life Sciences", "link": "https://www.linkedin.com/showcase/atos-health-life-sciences/", "industry": "Wellness and Fitness Services", "location": null}, {"name": "Atos Global Delivery Center Spain", "link": "https://es.linkedin.com/company/atos-global-delivery-center-spain", "industry": "Information Technology & Services", "location": null}], "updates": [{"article_link": null, "image": "https://media.licdn.com/dms/image/v2/D4E10AQGZmP0yGibEGg/image-shrink_800/image-shrink_800/0/1731571382476?e=2147483647&v=beta&t=NkxPa-jZ3CVBoUp6GP7eLgVnRfoFi1jWlh9tmesvMsQ", "posted_on": {"day": 14, "month": 11, "year": 2024}, "text": "How to anticipate and prepare for problems in the cloud?\nWatch this webinar to learn more on crafting a solid cloud strategy. We also address sustainability, security, availability, efficiency, and cost-control goals to take your cloud from zero to infinity and beyond! \ud83d\udca1\n\n\ud83d\udc49 http://spr.ly/6047SfDUJ\n\n#CloudAdvisory #BusinessStrategy #AdvancingWhatMatters", "total_likes": 21}, {"article_link": null, "image": "https://media.licdn.com/dms/image/v2/D4E10AQHneG_duxNovQ/image-shrink_800/image-shrink_800/0/1731504003909?e=2147483647&v=beta&t=NeHOmbbESaX5_CK4gvy1pf7L8MxyWeVYjSGNBlgeNbU", "posted_on": {"day": 13, "month": 11, "year": 2024}, "text": "\ud83c\udf3fDownload our Sustainable Workplace Paper! \ud83c\udf3f\n\nWe're excited to share our latest research based on data from 28.5 million devices.\ud83e\udd33 This comprehensive study reveals innovative ways to enhance the financial, environmental, and social value of every device, all while enriching the employee experience.\n\nDive into the full paper in collaboration with Nexthink, Tier 1, Circular Computing and learn how to make your workplace more sustainable\u27a1\ufe0f http://spr.ly/6049s6TNx\n\n#SustainableWorkplace #Innovation #EmployeeExperience #AdvancingWhatMatters", "total_likes": 31}, {"article_link": null, "image": "https://media.licdn.com/dms/image/v2/D4E10AQHZiVu8Q9qJ-A/image-shrink_800/image-shrink_800/0/1731499382792?e=2147483647&v=beta&t=4C-E8U9hA9x261O97a3RXBZ22EUFq5QfvHlC7Uy43uw", "posted_on": {"day": 13, "month": 11, "year": 2024}, "text": "\u26bd As the information technology partner for UEFA EURO 2024\u2122  and beyond, Atos is harnessing its expertise in complex technology management, ensuring seamless support across iconic tournaments like the UEFA EURO championships and UEFA Nations League Finals.\n\nAt the Gartner\u00ae IT Infrastructure, Operations & Cloud Strategies Conference, Clive Grethe, will be shed light on how we are elevating the experience for fans and stakeholders alike, bringing resilience, efficiency, and innovation - making each match an experience to remember. \n \nTo learn more talk to our experts at the event, visit http://spr.ly/6041sHOXd\n\n#GartnerIO #DigitalTransformation #AtosBridge #CloudCatalyst", "total_likes": 72}, {"article_link": null, "image": "https://media.licdn.com/dms/image/v2/D4E10AQHdIBa-rBNF7w/image-shrink_800/image-shrink_800/0/1731490022170?e=2147483647&v=beta&t=WY5KQGc8UZj2BRf1t_2g7c28gJ9hPggB5pTxxlNRTsg", "posted_on": {"day": 13, "month": 11, "year": 2024}, "text": "\ud83c\udfc6 We have been awarded in the \"Innovation and Technological Solutions\" category during the #Palmar\u00e8s2024 of the Global Sports Week, in the presence of Gil Av\u00e9rous, French Minister of Sports and key industry players sport and innovation last week in Paris.\n\nThis unique event highlights the French economic players who have made the most significant contributions to the success of the last major international sporting events (GESI) organized in the territory.\n\nWe are honored to have been recognized for our advancements in technological innovation. This award reflects our ability to provide cutting-edge digital solutions capable of supporting global events.\n\nThank you to all of our teams for their expertise and daily commitment, allowing us to revolutionize sport and offer unforgettable sporting experiences.\n\nLearn more here \u27a1\ufe0f http://spr.ly/6047sE70z\n\n#GSWParis #FutureOfSport #Sport #PALMAR\u00c8S2024", "total_likes": 189}, {"article_link": null, "image": "https://media.licdn.com/dms/image/v2/D4E10AQFjL6ziqzrjTQ/videocover-high/videocover-high/0/1731488412065?e=2147483647&v=beta&t=YuVQoQHs_kpf7vNMLzsaRfG995ZJEo2KQlN5ziFFNU8", "posted_on": {"day": 13, "month": 11, "year": 2024}, "text": "\u2728 Caring begins with truly listening. At Atos, we've been perfecting this practice for years. With innovative solutions, we leverage data to predict incidents before they arise, ensuring seamless support and proactive care for your teams.\n\nDiscover how Atos is reimagining the future of work with an employee-centric digital workplace that prioritizes well-being and productivity.\n\n\ud83d\udc49 Learn more about Atos Digital Workplace: http://spr.ly/6046S4oZK\n\n#AdvancingWhatMatters #AtosDigitalWorkplace #DigitalWorkplace #EmployeeExperience", "total_likes": 53}, {"article_link": null, "image": "https://media.licdn.com/dms/image/v2/D4E10AQFaPYZL43Btvw/image-shrink_800/image-shrink_800/0/1731416581762?e=2147483647&v=beta&t=qL-q9wtn7ufO5khVuWQp08FYXke_qkSVq13k3_-RVvc", "posted_on": {"day": 13, "month": 11, "year": 2024}, "text": "Join the ILO GBDN Conference Live! \ud83d\udcc6 \n\nAtos, Chair of the ILO GBDN for 2023/24, proudly participates in the 11th Annual Conference: \u201cFrom Margin to Mainstream: Disability in Business\u201d on 27-28 November 2024 in Geneva, streamed online.\n\n\ud83d\udde3\ufe0f Catch Neil Milliken, Atos' Global Head of Accessibility, speaking on 27 Nov from 13:30 - 14:30 CET.\n\nExpect best practices, new resources on disability-inclusive ESG, and more. Accessible in English, French, and Spanish with live captioning.\n\n\ud83d\udd17 See event details here: http://spr.ly/6042SfVHC\n\n#DisabilityInclusion #GBDN #Accessibility #LiveEvent", "total_likes": 40}, {"article_link": null, "image": "https://media.licdn.com/dms/image/v2/D4E10AQH_A69A4HDV2A/image-shrink_800/image-shrink_800/0/1731410400788?e=2147483647&v=beta&t=ZebE8PawltCNLtn9-zJPl_YuryMwUYM8oAAoeY_Vi5M", "posted_on": {"day": 13, "month": 11, "year": 2024}, "text": "\ud83d\udce2 Atos & Eviden Theater Session at Microsoft Ignite!\n\nDiscover how to \"Unleash GenAI at IOC: A Simple Yet Powerful Platform for Fast Adoption and Growth.\" \ud83d\udcc8 \nDuring the session, Mischa Van Oijen will discuss how our platform swiftly and efficiently navigates complex compliance requirements. We will deep dive into our fast, accurate solutions that meet current needs and pave the way for future growth. \ud83d\ude80\n\nExperience how simplicity and power come together to transform your operations. For more details \u27a1\ufe0f http://spr.ly/6049SfwUT \n\n#MSIgnite #CloudJourney #GenAI #DataSecurity #Sustainability #Innovation #TechExperts #DigitalTransformation", "total_likes": 78}, {"article_link": null, "image": "https://media.licdn.com/dms/image/v2/D4E22AQE5cHC-aWkMyA/feedshare-shrink_800/feedshare-shrink_800/0/1730989003016?e=2147483647&v=beta&t=gh30zIYzAPCQqKe8qXyiMJoI1ZNUOAk8ZP7YmRqq-kg", "posted_on": {"day": 11, "month": 11, "year": 2024}, "text": "\ud83c\udf89 Celebrating growth and learning! \ud83c\udf89 \n\nFor the past six months, IfM Engage at the Institute for Manufacturing (IfM), University of Cambridge has had the privilege of delivering two bespoke talent development programmes in partnership with global IT company Atos \u2013 FUEL for Emerging Leaders and GOLD for Technology Leaders. With a long-lasting collaboration since 2013, this year\u2019s edition of the two programmes had dozens of participants from over 20 countries, creating a truly globally diverse experience. \ud83c\udf0d \n\nThe participants\u2019 journeys have been a testament to the transformative potential of learning: the programmes empower Atos leaders with the tools, skills, and mindset needed to shape the future of their organisations.\n\nOur executive education team help large organisations with result and impact driven talent acceleration programmes. Find out if our highly bespoke approach is right for your organisation: https://lnkd.in/eVmhwhsY\n\nThe FUEL for Emerging Leaders programme supports high-potential talent to grow into international leaders with cross-cultural collaboration skills. The participants are guided through a series of modules and undertake in-company team projects culminating in a presentation at the HQ in Paris.\n\nGOLD for Technology Leaders, delivered in collaboration with Paderborn University, is aimed at senior professionals to help them develop a strategic view of technologies and a multi-strand end-to-end perspective in terms of business, value, people, and environment.\n\nWe extend our heartfelt gratitude to all those who have been part of these programmes: the mentors, teams, experts and leaders who have championed these valuable and transformative learning opportunities. \ud83d\ude4f \n\nDarren Austin, Martin Pfeil, Swati Valsangkar, Rik Robarts, Jaime Carrillo, Judith Shawcross, Amanda Bamford, Claudia Peverini, Lory Peresson-Robinson, Jaspar Robertson, Simon Oberth\u00fcr, Dennis Wolters, Iva zlateva\n\n#IFMInstitute #FUELProgram #GOLDProgram #LeadershipDevelopment #Innovation #AtosEmergingLeaders #TalentDevelopment #FutureLeaders #ExecutiveEducation #ProfessionalDevelopment #IfMEPD", "total_likes": 90}, {"article_link": null, "image": null, "posted_on": {"day": 9, "month": 11, "year": 2024}, "text": "Like Andy, your expertise in digital technology can make a difference in wildlife conservation and biodiversity monitoring. \ud83d\udc3c \n\nWe\u2019ve partnered with WWF to focus on wildlife conservation around the world. Our joint efforts include using AI and satellite imagery for biodiversity monitoring in East Africa, creating new algorithms to predict disease outbreaks in Southeast Asia, and supporting the SMART partnership by developing software to assist rangers working in protected areas across more than 90 countries.\n\nBecome Essential - Join us. Learn more \u27a1\ufe0f https://lnkd.in/e2GqZSmr \n\n#BecomeEssential #PowerOfWe #AtosTeam @Andy Wallace", "total_likes": 54}, {"article_link": null, "image": "https://media.licdn.com/dms/image/v2/D4E10AQHHOMFhOCbh9w/image-shrink_800/image-shrink_800/0/1731052982716?e=2147483647&v=beta&t=EBX6W6h_YGU_RhmFnPB-oBNDxYwa27bLyTGQGtc6y8o", "posted_on": {"day": 8, "month": 11, "year": 2024}, "text": "In today's fast-paced sports world, athletes juggle demanding schedules filled with travel, media duties, and financial responsibilities. So how can we help them stay focused on their game? \ud83c\udfc5\n\nAna Margarita Fernandez Reid, Solution Manager at Atos, shares how a well-designed athlete engagement portal can make a difference. \n\nBy simplifying admin tasks, these portals free up valuable time for athletes to train and prepare, boosting on-field performance. Plus, they support athletes' personal and professional growth through education, financial literacy, and development resources.\n\nRead the full article here:\n\ud83d\udc49 http://spr.ly/6047SKejF\n\n#CX #Sports #AthleteExperience #Performance #Innovation", "total_likes": 57}], "follower_count": 2221598, "acquisitions": null, "exit_data": null, "extra": null, "funding_data": [], "categories": null, "customer_list": null}
