{"linkedin_internal_id": "157240", "description": "Capgemini is a global business and technology transformation partner, helping organizations to accelerate their dual transition to a digital and sustainable world, while creating tangible impact for enterprises and society. It is a responsible and diverse group of 340,000 team members in more than 50 countries. With its strong over 55-year heritage, Capgemini is trusted by its clients to unlock the value of technology to address the entire breadth of their business needs. It delivers end-to-end services and solutions leveraging strengths from strategy and design to engineering, all fueled by its market leading capabilities in AI, cloud and data, combined with its deep industry expertise and partner ecosystem. The Group reported 2023 global revenues of \u20ac22.5 billion.\n\nGet The Future You Want | www.capgemini.com", "website": "https://www.capgemini.com", "industry": "Business Consulting and Services", "company_size": [10001, null], "company_size_on_linkedin": 298136, "hq": {"country": "FR", "city": "Paris", "postal_code": "75017", "line_1": "Place de l'\u00c9toile", "is_hq": true, "state": "France"}, "company_type": "PUBLIC_COMPANY", "founded_year": null, "specialities": ["Outsourcing", "Process Consulting", "Package Based Solutions", "Custom Solution Development", "Application Management", "Artificial Intelligence", "Business Consulting", "Cloud", "Digital", "Managed Services", "Innovation", "Intelligent Industry", "Sustainable IT"], "locations": [{"country": "FR", "city": "Paris", "postal_code": "75017", "line_1": "Place de l'\u00c9toile", "is_hq": true, "state": "France"}, {"country": "AE", "city": "Dubai", "postal_code": "502420", "line_1": "Dubai Internet City", "is_hq": true, "state": null}, {"country": "NL", "city": "Amsterdam", "postal_code": "1101 BV", "line_1": "Hullenbergweg 294", "is_hq": true, "state": "North Holland"}, {"country": "US", "city": "Dallas", "postal_code": "75201", "line_1": "1601 Bryan St", "is_hq": true, "state": "TX"}, {"country": "AU", "city": "Melbourne", "postal_code": "3000", "line_1": "595 Collins St", "is_hq": true, "state": "VIC"}, {"country": "NL", "city": "Apeldoorn", "postal_code": "7323 BA", "line_1": "Fauststraat 3", "is_hq": true, "state": "Gelderland"}, {"country": "US", "city": "Bloomfield", "postal_code": "07003", "line_1": "400 Broadacres Dr", "is_hq": true, "state": "NJ"}, {"country": "US", "city": "Atlanta", "postal_code": "30305", "line_1": "3475 Piedmont Rd NE", "is_hq": true, "state": "GA"}, {"country": "US", "city": "South San Francisco", "postal_code": "94080", "line_1": "4000 Shoreline Ct", "is_hq": true, "state": "CA"}, {"country": "FR", "city": "Toulouse", "postal_code": "31100", "line_1": "109 Avenue du General Eisenhower", "is_hq": true, "state": "Occitanie"}, {"country": "US", "city": "Charlotte", "postal_code": "28202", "line_1": "201 S College St", "is_hq": true, "state": "NC"}, {"country": "NL", "city": "Utrecht", "postal_code": "3543 KA", "line_1": "Reykjavikplein 1", "is_hq": true, "state": "Utrecht"}, {"country": "US", "city": "Chicago", "postal_code": "60606", "line_1": "333 W Wacker Dr", "is_hq": true, "state": "IL"}, {"country": "SG", "city": "Singapore", "postal_code": "049909", "line_1": "6 Battery Rd", "is_hq": true, "state": "Singapore"}, {"country": "AU", "city": "Sydney", "postal_code": "2000", "line_1": "77 King St", "is_hq": true, "state": "NSW"}, {"country": "US", "city": "Jersey City", "postal_code": "07302", "line_1": "10 Exchange Pl", "is_hq": true, "state": "NJ"}, {"country": "US", "city": "New York", "postal_code": "10003", "line_1": "79 5th Ave", "is_hq": true, "state": "NY"}, {"country": "IN", "city": "Bengaluru", "postal_code": "560048", "line_1": "2 Whitefield Main Road", "is_hq": true, "state": "Karnataka"}, {"country": "SE", "city": "Bromma", "postal_code": "167 51", "line_1": "Gustavslundsvagen 131", "is_hq": true, "state": "Stockholm County"}, {"country": "IN", "city": "Mulshi", "postal_code": "411057", "line_1": "Hinjewadi Phase 3 Road", "is_hq": true, "state": "Maharashtra"}, {"country": "AR", "city": "Buenos Aires City", "postal_code": "1035", "line_1": "Avenida Presidente Roque Saenz Pena 615", "is_hq": true, "state": "Buenos Aires Autonomous City"}, {"country": "BR", "city": "Porto Alegre", "postal_code": "90480-000", "line_1": "Avenida Carlos Gomes, 222", "is_hq": true, "state": "RS"}, {"country": "JP", "city": "Chiyoda City", "postal_code": "100-0004", "line_1": "1 Chome-9-5 \u014ctemachi", "is_hq": true, "state": "Tokyo"}, {"country": "GB", "city": "London", "postal_code": "EC1N 2PB", "line_1": "40 Holborn Viaduct", "is_hq": true, "state": null}, {"country": "EG", "city": "Cairo Festival City", "postal_code": null, "line_1": "Ring Road, New Cairo", "is_hq": true, "state": null}], "name": "Capgemini", "tagline": "Get the future you want", "universal_name_id": "capgemini", "profile_pic_url": "https://s3.us-west-000.backblazeb2.com/proxycurl/company/capgemini/profile?X-Amz-Algorithm=AWS4-HMAC-SHA256&X-Amz-Credential=0004d7f56a0400b0000000001%2F20241120%2Fus-west-000%2Fs3%2Faws4_request&X-Amz-Date=20241120T051942Z&X-Amz-Expires=3600&X-Amz-SignedHeaders=host&X-Amz-Signature=ea6b831c51b24b4c1173c67035827fe110a2fe8cbe35302a4adbe86dc3a7872f", "background_cover_image_url": "https://s3.us-west-000.backblazeb2.com/proxycurl/company/capgemini/cover?X-Amz-Algorithm=AWS4-HMAC-SHA256&X-Amz-Credential=0004d7f56a0400b0000000001%2F20241120%2Fus-west-000%2Fs3%2Faws4_request&X-Amz-Date=20241120T051942Z&X-Amz-Expires=3600&X-Amz-SignedHeaders=host&X-Amz-Signature=cc410c48d849c766b206693155e25f0402bda492b1aa63f33e0a490807bcac7e", "search_id": "157240", "similar_companies": [{"name": "Cognizant", "link": "https://www.linkedin.com/company/cognizant/", "industry": "IT Services and IT Consulting", "location": null}, {"name": "Deloitte", "link": "https://www.linkedin.com/company/deloitte/", "industry": "Business Consulting and Services", "location": null}, {"name": "Tata Consultancy Services", "link": "https://www.linkedin.com/company/tata-consultancy-services/", "industry": "IT Services and IT Consulting", "location": null}, {"name": "Accenture", "link": "https://www.linkedin.com/company/accenture/", "industry": "Business Consulting and Services", "location": null}, {"name": "Infosys", "link": "https://www.linkedin.com/company/infosys/", "industry": "IT Services and IT Consulting", "location": null}, {"name": "Wipro", "link": "https://www.linkedin.com/company/wipro/", "industry": "IT Services and IT Consulting", "location": null}, {"name": "IBM", "link": "https://www.linkedin.com/company/ibm/", "industry": "IT Services and IT Consulting", "location": null}, {"name": "Tech Mahindra", "link": "https://www.linkedin.com/company/tech-mahindra/", "industry": "IT Services and IT Consulting", "location": null}, {"name": "HCLTech", "link": "https://www.linkedin.com/company/hcltech/", "industry": "IT Services and IT Consulting", "location": null}, {"name": "EY", "link": "https://www.linkedin.com/company/ernstandyoung/", "industry": "IT Services and IT Consulting", "location": null}, {"name": "Genpact", "link": "https://www.linkedin.com/company/genpact/", "industry": "Business Consulting and Services", "location": null}, {"name": "Amazon", "link": "https://www.linkedin.com/company/amazon/", "industry": "Software Development", "location": null}, {"name": "Google", "link": "https://www.linkedin.com/company/google/", "industry": "Software Development", "location": null}, {"name": "Capgemini Engineering", "link": "https://www.linkedin.com/company/capgemini-engineering/", "industry": "Engineering Services", "location": null}, {"name": "LTIMindtree", "link": "https://www.linkedin.com/company/ltimindtree/", "industry": "IT Services and IT Consulting", "location": null}, {"name": "Microsoft", "link": "https://www.linkedin.com/company/microsoft/", "industry": "Software Development", "location": null}, {"name": "PwC", "link": "https://www.linkedin.com/company/pwc/", "industry": "Professional Services", "location": null}, {"name": "Accenture in India", "link": "https://www.linkedin.com/company/accentureindia/", "industry": "IT Services and IT Consulting", "location": null}, {"name": "JPMorganChase", "link": "https://www.linkedin.com/company/jpmorganchase/", "industry": "Financial Services", "location": null}, {"name": "Atos", "link": "https://www.linkedin.com/company/atos/", "industry": "IT Services and IT Consulting", "location": null}], "affiliated_companies": [{"name": "Intergen", "link": "https://www.linkedin.com/company/intergen/", "industry": "IT Services and IT Consulting", "location": null}, {"name": "Capgemini Energy Transition & Utilities ", "link": "https://www.linkedin.com/showcase/capgemini-energy-&-utilities/", "industry": "IT Services and IT Consulting", "location": null}, {"name": "Capgemini Government Solutions", "link": "https://www.linkedin.com/showcase/capgemini-government-solutions-u-s--public-sector-/", "industry": "IT Services and IT Consulting", "location": null}, {"name": "Capgemini Public Sector", "link": "https://www.linkedin.com/showcase/capgemini-public-sector/", "industry": "IT Services and IT Consulting", "location": null}, {"name": "Empired", "link": "https://www.linkedin.com/company/empired-ltd/", "industry": "IT Services and IT Consulting", "location": null}, {"name": "Capgemini Financial Services", "link": "https://www.linkedin.com/showcase/capgemini-fs/", "industry": "Financial Services", "location": null}, {"name": "Capgemini Engineering", "link": "https://www.linkedin.com/company/capgemini-engineering/", "industry": "Engineering Services", "location": null}, {"name": "Capgemini Applied Innovation Exchange - San Francisco", "link": "https://www.linkedin.com/showcase/capgemini-aie-sf/", "industry": "IT Services and IT Consulting", "location": null}, {"name": "Advectas", "link": "https://www.linkedin.com/company/advectas/", "industry": "IT Services and IT Consulting", "location": null}, {"name": "Capgemini Cybersecurity", "link": "https://www.linkedin.com/showcase/intelligent-cybersecurity/", "industry": "Computer and Network Security", "location": null}, {"name": "Capgemini Data and AI", "link": "https://www.linkedin.com/showcase/ai-data-by-capgemini/", "industry": "IT Services and IT Consulting", "location": null}, {"name": "IGATE", "link": "https://www.linkedin.com/company/igate-technologies/", "industry": "Information Technology & Services", "location": null}, {"name": "Capgemini Automotive", "link": "https://www.linkedin.com/showcase/capgemini-automotive/", "industry": "Motor Vehicle Manufacturing", "location": null}, {"name": "Capgemini Cloud", "link": "https://www.linkedin.com/showcase/capgemini-cloud/", "industry": "Information Technology & Services", "location": null}, {"name": "RXP Group", "link": "https://www.linkedin.com/company/rxpgroup/", "industry": "IT Services and IT Consulting", "location": null}, {"name": "Capgemini Media & Entertainment", "link": "https://www.linkedin.com/showcase/capgemini-media-entertainment/", "industry": "Entertainment Providers", "location": null}, {"name": "Sogeti", "link": "https://www.linkedin.com/company/sogeti/", "industry": "IT Services and IT Consulting", "location": null}, {"name": "Capgemini Aerospace & Defense", "link": "https://www.linkedin.com/showcase/capgemini-aerospace-defense/", "industry": "IT Services and IT Consulting", "location": null}, {"name": "Capgemini Invent", "link": "https://www.linkedin.com/company/capgemini-invent/", "industry": "Business Consulting and Services", "location": null}, {"name": "Capgemini Retail & Consumer Goods", "link": "https://www.linkedin.com/showcase/capgemini-consumer-goods-retail/", "industry": "IT Services and IT Consulting", "location": null}, {"name": "Capgemini Life Sciences and Healthcare", "link": "https://www.linkedin.com/showcase/capgemini-life-sciences-and-healthcare/", "industry": "IT Services and IT Consulting", "location": null}, {"name": "Capgemini High Tech", "link": "https://www.linkedin.com/showcase/capgemini-high-tech/", "industry": "Business Consulting and Services", "location": null}, {"name": "Capgemini Telecommunications", "link": "https://www.linkedin.com/showcase/capgemini-telecommunications/", "industry": "Telecommunications", "location": null}, {"name": "Euriware", "link": "https://www.linkedin.com/company/euriware/", "industry": "IT Services and IT Consulting", "location": null}, {"name": "Acclimation", "link": "https://www.linkedin.com/company/acclimation/", "industry": "IT Services and IT Consulting", "location": null}, {"name": "Capgemini Business Services", "link": "https://www.linkedin.com/showcase/capgemini-business-services/", "industry": "Outsourcing and Offshoring Consulting", "location": null}, {"name": "Capgemini Customer Experience", "link": "https://www.linkedin.com/showcase/capgemini-customer-experience/", "industry": "IT Services and IT Consulting", "location": null}, {"name": "Les Fontaines", "link": "https://www.linkedin.com/company/les-fontaines-a-capgemini-company/", "industry": "Events Services", "location": null}], "updates": [{"article_link": "https://www.linkedin.com/posts/capgemini_getthefutureyouwant-transformingsports-activity-7257678291703140352-KFHG", "image": null, "posted_on": {"day": 1, "month": 11, "year": 2024}, "text": "In the 6th and final episode of our \"Revealing new horizons\" series, discover how Capgemini, through cutting-edge innovations like WindSight IQ\u2122, is transforming sports to make it more inspiring, entertaining, and inclusive through the power of technology. \n\nWhile it has already revolutionized the experience of the Louis Vuitton 37th America's Cup, its applications extend far beyond sailing - we\u2019re just scratching the surface! Revealing the wind, making the invisible visible, has the power to change not only sports entertainment but also to shape the future of major industries. \n\nThe WindSight IQ\u2122 journey of seamlessly blending the physical and digital worlds demonstrates the power of innovation. \n\nCatch up on every episode of the \u201cRevealing new horizons\u201d series here: https://bit.ly/4dodgXV\n\n#GetTheFutureYouWant #TransformingSports", "total_likes": 157}, {"article_link": "https://www.linkedin.com/posts/capgemini_sustainability-netzero-greenit-activity-7259467035175260160--szs", "image": "https://media.licdn.com/dms/image/v2/D4E10AQHYlNOwIDoV-w/image-shrink_1280/image-shrink_1280/0/1730791815423?e=1731470400&v=beta&t=AOYAn-TapSEteW1J-11Lhy8LhCj1QRuX36neMPAX288", "posted_on": {"day": 5, "month": 11, "year": 2024}, "text": "Did you know that employee behavior could be the missing piece in your company\u2019s #sustainability puzzle?\n\nWhen it comes to reducing emissions from end-user devices, it\u2019s not just about the technology \u2013 it\u2019s also about the people who use it. Discover how small changes in device use can lead to huge impacts in your journey toward sustainability in our latest PoV https://bit.ly/3TyPFfW\n \n#NetZero #GreenIT #SustainableDevices #CarbonReduction #EcoFriendlyTech", "total_likes": 125}, {"article_link": "https://www.linkedin.com/posts/capgemini_genai-cxo-sustainableai-activity-7258402581708697600-HrE0", "image": "https://media.licdn.com/dms/image/v2/D4E10AQFj6FAdFQFOFQ/image-shrink_1280/image-shrink_1280/0/1730538029796?e=1731470400&v=beta&t=cT8pZ-7Kn64-8MmmUdrM5QXf9LobxsJtV6RLpvpJO5Q", "posted_on": {"day": 3, "month": 11, "year": 2024}, "text": "In 2023, French entrepreneur and scientist, Arthur Mensch, co-founded Mistral AI with the mission of making #GenAI ubiquitous and pioneering a new approach to AI - one that is more open, portable, independent, and accessible to all.\n\nIn this exclusive interview, Arthur shares his thoughts on Gen AI's sustainability implications and how Mistral AI is bridging the AI talent demand-supply gap.\n\nGrab your copy of the Gen AI edition of our #CxO journal \"Conversations for Tomorrow\" \ud83d\udc49 https://bit.ly/40fF1Pl\n\n#SustainableAI #AItalent", "total_likes": 214}, {"article_link": "https://www.linkedin.com/posts/capgemini_genai-softwareengineering-activity-7259241711925706752-0amH", "image": null, "posted_on": {"day": 5, "month": 11, "year": 2024}, "text": "Join over 2M subscribers who receive our monthly \u201cStraight to the future\u201d newsletter.\n\nIn the latest issue, we dive into:\n\n\ud83d\udca1 How #GenAI is changing #SoftwareEngineering\n\u2728 How it\u2019s prompting organizations to invest in talent\n\ud83d\udcc8 And why its adoption is just gaining momentum\n\u00a0\nDon\u2019t miss out \u2014 subscribe now to receive actionable insights on building a future-ready organization!", "total_likes": 1236}, {"article_link": "https://www.linkedin.com/posts/capgemini_in-q3-2024-the-group-generated-revenues-activity-7257355545718796288-65fb", "image": null, "posted_on": {"day": 31, "month": 10, "year": 2024}, "text": "Our CEO Aiman Ezzat presented this morning Q3 2024 revenues - see below for more details.", "total_likes": 245}, {"article_link": "https://www.linkedin.com/posts/capgemini_genai-waysofworking-activity-7255853218860003329-8p28", "image": "https://media.licdn.com/dms/image/v2/D4E10AQHxzHvp7AeD7Q/image-shrink_1280/image-shrink_1280/0/1729930214371?e=1731470400&v=beta&t=5pyIt5-xU0URNFJpOZd_Up21tzU-xaM6D0Tvwqsynuc", "posted_on": {"day": 30, "month": 10, "year": 2024}, "text": "\ud83d\udd13 Unlock the power of Gen AI with the right leadership.\n\nManagers are crucial to addressing workforce fears and skepticism associated with new technologies. We found that 54% of leaders believe managers have a critical role to play as catalysts for Gen AI adoption.\n\nDownload our \"Gen AI at work\" report to understand how managers will be integral to the fusion teams of humans and AI \ud83d\udce5 https://bit.ly/3Nsmesz\n\n#GenAI #WaysOfWorking\"", "total_likes": 445}], "follower_count": 7134289, "acquisitions": null, "exit_data": null, "extra": null, "funding_data": [], "categories": null, "customer_list": null}
