{"linkedin_internal_id": "11448", "description": "Citi's mission is to serve as a trusted partner to our clients by responsibly providing financial services that enable growth and economic progress. Our core activities are safeguarding assets, lending money, making payments and accessing the capital markets on behalf of our clients. We have 200 years of experience helping our clients meet the world's toughest challenges and embrace its greatest opportunities. We are Citi, the global bank \u2013 an institution connecting millions of people across hundreds of countries and cities.\n\nFor information on Citi\u2019s commitment to privacy, visit on.citi/privacy.", "website": "http://www.citigroup.com", "industry": "Financial Services", "company_size": [10001, null], "company_size_on_linkedin": 188465, "hq": {"country": "US", "city": "New York", "postal_code": "10013", "line_1": "388 Greenwich Street", "is_hq": true, "state": "New York"}, "company_type": "PUBLIC_COMPANY", "founded_year": 1812, "specialities": ["Banking", "Commercial Banking", "Investment Banking", "Wealth Management", "Credit Cards", "Capital Markets", "Equity and Fixed Income Research", "Consumer Lending", "Cash Management", "Transaction Services"], "locations": [{"country": "US", "city": "New York", "postal_code": "10013", "line_1": "388 Greenwich Street", "is_hq": true, "state": "New York"}, {"country": "US", "city": "http://www.citigroup.com/citi/global/index.htm", "postal_code": "10022", "line_1": "Locations in over 100 countries", "is_hq": false, "state": null}, {"country": "CA", "city": "Mississauga", "postal_code": "L5R 0B8", "line_1": "5900 Hurontario St", "is_hq": false, "state": "ON"}, {"country": "MY", "city": "Kuala Lumpur", "postal_code": "50450", "line_1": "165 Jalan Ampang", "is_hq": false, "state": "Federal Territory of Kuala Lumpur"}, {"country": "PA", "city": "Panama City", "postal_code": null, "line_1": "Calle 62C O", "is_hq": false, "state": "Panama"}, {"country": "US", "city": "Dallas", "postal_code": "75238", "line_1": "11060 Grader St", "is_hq": false, "state": "TX"}, {"country": "PE", "city": "San Isidro", "postal_code": "15047", "line_1": "Avenida Canaval Moreyra 498", "is_hq": false, "state": "Lima"}, {"country": "US", "city": "New York", "postal_code": "10022", "line_1": "153 E 53rd St", "is_hq": false, "state": "NY"}, {"country": "MX", "city": "Alvaro Obregon", "postal_code": "01376", "line_1": "Roberto Medellin 800", "is_hq": false, "state": "CDMX"}, {"country": "PH", "city": "Taguig City", "postal_code": null, "line_1": "34th St", "is_hq": false, "state": "National Capital Region"}, {"country": "HK", "city": "Central & Western", "postal_code": null, "line_1": "3 Garden Rd", "is_hq": false, "state": "Hong Kong"}, {"country": "AE", "city": "Dubai", "postal_code": null, "line_1": "Financial Center Road", "is_hq": false, "state": "Dubai"}, {"country": "GB", "city": "London", "postal_code": null, "line_1": "33 Canada Square", "is_hq": false, "state": "England E14 5"}, {"country": "CO", "city": "Bogota", "postal_code": "110221", "line_1": "Carrera 9A 99-2", "is_hq": false, "state": "Bogota, D.C."}, {"country": "IN", "city": "Mumbai", "postal_code": "400051", "line_1": "Bandra Kurla Complex Road", "is_hq": false, "state": "Maharashtra"}, {"country": "IL", "city": "Tel Aviv-Yafo", "postal_code": "62098", "line_1": "Arlozorov 111", "is_hq": false, "state": "Tel Aviv"}, {"country": "TW", "city": "Taipei City", "postal_code": "110", "line_1": "No. 1, Song Zhi Rd.", "is_hq": false, "state": "Taipei City"}, {"country": "IN", "city": "Chennai", "postal_code": "600018", "line_1": "C P Ramaswamy Road", "is_hq": false, "state": "Tamil Nadu"}, {"country": "US", "city": "Jacksonville", "postal_code": "32258", "line_1": "14000 Citicards Way", "is_hq": false, "state": "FL"}], "name": "Citi", "tagline": null, "universal_name_id": "citi", "profile_pic_url": "https://s3.us-west-000.backblazeb2.com/proxycurl/company/citi/profile?X-Amz-Algorithm=AWS4-HMAC-SHA256&X-Amz-Credential=0004d7f56a0400b0000000001%2F20241120%2Fus-west-000%2Fs3%2Faws4_request&X-Amz-Date=20241120T053126Z&X-Amz-Expires=3600&X-Amz-SignedHeaders=host&X-Amz-Signature=e1e8f0e6284c909175598c1832f6cbd31846d92b17ef61d090092525a5b82e38", "background_cover_image_url": "https://s3.us-west-000.backblazeb2.com/proxycurl/company/citi/cover?X-Amz-Algorithm=AWS4-HMAC-SHA256&X-Amz-Credential=0004d7f56a0400b0000000001%2F20241120%2Fus-west-000%2Fs3%2Faws4_request&X-Amz-Date=20241120T053126Z&X-Amz-Expires=3600&X-Amz-SignedHeaders=host&X-Amz-Signature=e5c765b34552c5685c255daa03245fc391d1f7d571d9765785a4664c3bec2990", "search_id": "11448", "similar_companies": [{"name": "JPMorganChase", "link": "https://www.linkedin.com/company/jpmorganchase", "industry": "Financial Services", "location": "New York, NY"}, {"name": "HSBC", "link": "https://uk.linkedin.com/company/hsbc", "industry": "Financial Services", "location": null}, {"name": "Bank of America", "link": "https://www.linkedin.com/company/bank-of-america", "industry": "Banking", "location": "Charlotte, NC"}, {"name": "Goldman Sachs", "link": "https://www.linkedin.com/company/goldman-sachs", "industry": "Financial Services", "location": "New York, New York"}, {"name": "Deutsche Bank", "link": "https://de.linkedin.com/company/deutsche-bank", "industry": "Financial Services", "location": "Frankfurt am Main, Hessen"}, {"name": "Barclays", "link": "https://uk.linkedin.com/company/barclays-bank", "industry": "Financial Services", "location": null}, {"name": "Morgan Stanley", "link": "https://www.linkedin.com/company/morgan-stanley", "industry": "Financial Services", "location": "New York, NY"}, {"name": "Deloitte", "link": "https://www.linkedin.com/company/deloitte", "industry": "Business Consulting and Services", "location": null}, {"name": "Wells Fargo", "link": "https://www.linkedin.com/company/wellsfargo", "industry": "Financial Services", "location": "San Francisco, California"}, {"name": "Standard Chartered", "link": "https://uk.linkedin.com/company/standardchartered", "industry": "Banking", "location": "London, England"}], "affiliated_companies": [], "updates": [{"article_link": null, "image": "https://media.licdn.com/dms/image/v2/D4E10AQGvrlgKnjaobg/videocover-high/videocover-high/0/1731618008490?e=2147483647&v=beta&t=D968ed6IfJIxXjrLOxpvBUabHKFAAdKepEwdM15FH0s", "posted_on": {"day": 14, "month": 11, "year": 2024}, "text": "CEO Jane Fraser on Citi\u2019s latest business performance and the proof points that its global strategy is working, via CNBC.", "total_likes": 706}, {"article_link": null, "image": "https://media.licdn.com/dms/image/v2/D4E10AQFiYe_g-l4TXw/image-shrink_800/image-shrink_800/0/1731617102087?e=2147483647&v=beta&t=XyjDy_f2FLzIY9UlrqmhNe9qpu35hNP5R_KgY8am2Go", "posted_on": {"day": 14, "month": 11, "year": 2024}, "text": "Discover how finance leaders navigate FX market volatility to align their organizations for successful global growth in Citi Commercial Bank\u2019s latest podcast episode, \u201cBusiness and Risk Management Impacts of International Expansion.\u201d\n\nJon Boaden CFO of Volex; Kyu-Ha Choi, Head of Treasury and Risk Management of Coroplast Group; and Sylvia Huang in Citi\u2019s FX Structuring and Solutions team, join host Huaijin Bao, Global Head of Industrials for Citi Commercial Bank, as they dive into currency risk management strategies. Tune in now: https://on.citi/3USeSCG", "total_likes": 36}, {"article_link": null, "image": "https://media.licdn.com/dms/image/v2/D4E10AQF82mwyuzCteQ/image-shrink_800/image-shrink_800/0/1731610802388?e=2147483647&v=beta&t=ahRjKmVLJuX33Lz3jl-MN5vN21D9PZERAtDE_b2MF-I", "posted_on": {"day": 14, "month": 11, "year": 2024}, "text": "Rodrigo San Pedro, CFO, Mexico at Smart Fit, shares how Citi has helped Smart Fit to expand their business through speedy implementation of solutions. Learn more: https://on.citi/4hLUA80", "total_likes": 84}, {"article_link": null, "image": "https://media.licdn.com/dms/image/v2/D4E10AQGeCRbgUJFhqg/image-shrink_800/image-shrink_800/0/1731603605094?e=2147483647&v=beta&t=leBEfIePL66LceN2X99hYLVnxf8y5gcg5h16jIz0UPk", "posted_on": {"day": 14, "month": 11, "year": 2024}, "text": "Citi recently commemorated its 60th anniversary in the UAE with CEO Jane Fraser. The event was attended by Citi\u2019s global and local executives as well as many government, business, and industry leaders in the UAE. From pioneering innovative financial solutions to facilitating economic growth, Citi has been an integral part of key sectors in the UAE, serving as a catalyst for development and prosperity. Read more here: https://on.citi/4foegxd", "total_likes": 590}, {"article_link": null, "image": "https://media.licdn.com/dms/image/v2/D4E10AQEk2n7zIDoYzQ/image-shrink_1280/image-shrink_1280/0/1731597673743?e=2147483647&v=beta&t=KnzEn9sqpQPih5igDvz8nHlzGsUcoduQ-s3tSSGEiOk", "posted_on": {"day": 14, "month": 11, "year": 2024}, "text": "The UK economy is broadly perceived to have stagnated, its growth having fallen behind that of many peer nations. Productivity growth in particular has shifted from moving in lockstep with the U.S. to decoupling from it since the Global Financial Crisis. What\u2019s behind the UK\u2019s lackluster performance? And what\u2019s needed to change its trajectory? \n\nJoin Lucy Baldwin and Citi\u2019s Chief UK Economist Ben Nabarro as they look under the hood of the UK economy and discuss its prospects for charting a better path.\n\nListen to the episode here: https://on.citi/4etMZIi", "total_likes": 62}, {"article_link": null, "image": "https://media.licdn.com/dms/image/v2/D4E10AQEk7NikTHuJ-A/image-shrink_1280/image-shrink_1280/0/1731596401589?e=2147483647&v=beta&t=AQGL_hRubJwm7nTkluqqtWycRf30Lf8TfdGZtrY3TyY", "posted_on": {"day": 14, "month": 11, "year": 2024}, "text": "From ride-hailing apps to insurance companies, many businesses can benefit from tech built around instant payment schemes. Discover the benefits of instant payments, from greater efficiency to increased customer satisfaction here:\nhttps://on.citi/3YJNc4i", "total_likes": 29}, {"article_link": null, "image": "https://media.licdn.com/dms/image/v2/D4E10AQE_oOKPtSVcTg/image-shrink_1280/image-shrink_1280/0/1731589201106?e=2147483647&v=beta&t=zw9RQQ-O74gWzkuOcIQjnT413z6ac_6jM5hP2ieHVoM", "posted_on": {"day": 14, "month": 11, "year": 2024}, "text": "We\u2019re honored to have won The TRADE News' Leaders in Trading 2024 Algorithmic Trading Award for 'Best Provider \u2013 Large Clients.'\n\nThese awards highlight the year\u2019s leading buy-side, sell-side, service providers, technology firms and venues in the industry. We\u2019re proud to be recognized by Citi's global equity client base as a trusted execution counterpart in EMEA.\n\nFor more information about these awards, visit: https://on.citi/4fLdJ85", "total_likes": 257}, {"article_link": null, "image": "https://media.licdn.com/dms/image/v2/D4E22AQF3m-iTATQ_5w/feedshare-shrink_800/feedshare-shrink_800/0/1730747774340?e=2147483647&v=beta&t=18hG629XBUuYzgBJ2VoD_Gmr10noJWhmSDaqec84ypA", "posted_on": {"day": 8, "month": 11, "year": 2024}, "text": "Last week, I had the privilege of connecting with our talented Internal Audit teams in Mexico City. I'm continually impressed by the dedication, innovation and resilience demonstrated across every level of our organization in Mexico. \n\nThe town hall with our awesome teams was a highlight - a chance to celebrate wins, address questions and focus on the future. The team's determination, resilience and commitment shine through as they push for excellence, support one another and drive our mission forward. Proud to work alongside such a motivated, dedicated team. Thank you for all that you do!", "total_likes": 313}, {"article_link": null, "image": "https://media.licdn.com/dms/image/v2/D4E10AQGcUFbAeQk6jA/image-shrink_800/image-shrink_800/0/1731524401788?e=2147483647&v=beta&t=We63QI_F-9Kbj7GLA0ronoeJlV7nIFFBe7T9Zu37-U8", "posted_on": {"day": 14, "month": 11, "year": 2024}, "text": "Jimena Hern\u00e1ndez, Treasury Manager at Saavi Energia, shares how Citi has played a strategic role as their head bank to provide high-standard cybersecurity and increase the firm\u2019s treasury automation. Learn more: https://on.citi/3O9mooY", "total_likes": 151}, {"article_link": null, "image": "https://media.licdn.com/dms/image/v2/D4E10AQHwWBHMQdhlOg/image-shrink_800/image-shrink_800/0/1731508428811?e=2147483647&v=beta&t=hm-3nvkF8WuI0zQZPM0tUYL2yZGdXlxdLCpTX8LmRak", "posted_on": {"day": 14, "month": 11, "year": 2024}, "text": "Congratulations to CEO Jane Fraser on being named #15 on Fortune\u2019s inaugural 100 Most Power People in Business list. https://on.citi/3O7MzwE", "total_likes": 4181}], "follower_count": 4451276, "acquisitions": null, "exit_data": null, "extra": null, "funding_data": [], "categories": null, "customer_list": null}
