{"linkedin_internal_id": "1680", "description": "Cognizant (Nasdaq-100: CTSH) engineers modern businesses. We help our clients modernize technology, reimagine processes and transform experiences so they can stay ahead in our fast-changing world. Together, we\u2019re improving everyday life. See how at www.cognizant.com or @cognizant.", "website": "https://www.cognizant.com", "industry": "IT Services and IT Consulting", "company_size": [10001, null], "company_size_on_linkedin": 324517, "hq": {"country": "US", "city": "Teaneck", "postal_code": "07666", "line_1": "300 Frank W Burr Blvd Suite 600", "is_hq": true, "state": "New Jersey"}, "company_type": "PUBLIC_COMPANY", "founded_year": null, "specialities": ["Interactive", "Intelligent Process Automation", "Digital Engineering", "Industry & Platform Solutions", "Internet of Things", "Artificial Intelligence", "Cloud", "Data ", "Healthcare", "Banking", "Finance ", "Fintech", "Manufacturing", "Retail", "Technology ", "Salesforce"], "locations": [{"country": "US", "city": "Teaneck", "postal_code": "07666", "line_1": "300 Frank W Burr Blvd Suite 600", "is_hq": true, "state": "New Jersey"}, {"country": "US", "city": "Phoenix", "postal_code": "85029", "line_1": "Second Floor", "is_hq": false, "state": "Arizona"}, {"country": "IN", "city": "Chennai", "postal_code": null, "line_1": "Thoraipakkam", "is_hq": false, "state": "Tamil Nadu 600 096"}, {"country": "GB", "city": "London", "postal_code": "W2 6BD", "line_1": "1 Kingdom Street Paddington Central", "is_hq": false, "state": null}, {"country": "IN", "city": "Kochi", "postal_code": null, "line_1": "3rd floor, Technopolis, Kakkanad", "is_hq": false, "state": "Kerala 682 037"}, {"country": "HU", "city": "Budapest", "postal_code": "1095", "line_1": "Soroks\u00e1ri \u00fat 44.", "is_hq": false, "state": "Budapest"}, {"country": "US", "city": "New Haven", "postal_code": "06510", "line_1": "129 Church St", "is_hq": false, "state": "CT"}, {"country": "AU", "city": "Melbourne", "postal_code": "3000", "line_1": "15 William St", "is_hq": false, "state": "VIC"}, {"country": "FR", "city": "Paris", "postal_code": "75009", "line_1": "50 Boulevard Haussmann", "is_hq": false, "state": "IdF"}, {"country": "IT", "city": "Milan", "postal_code": "20121", "line_1": "Via Monte di Pieta, 21", "is_hq": false, "state": "Lomb."}, {"country": "BE", "city": "Brussels", "postal_code": "1000", "line_1": "Havenlaan 86C, Box 408", "is_hq": false, "state": "Brussels Region"}, {"country": "US", "city": "Edina", "postal_code": "55439", "line_1": "7301 Ohms Ln", "is_hq": false, "state": "MN"}, {"country": "SG", "city": "Singapore", "postal_code": null, "line_1": "Anson Rd", "is_hq": false, "state": "Singapore"}, {"country": "AU", "city": "Sydney", "postal_code": "2000", "line_1": "28 Margaret St", "is_hq": false, "state": "NSW"}, {"country": "PL", "city": "Gdansk", "postal_code": "80-309", "line_1": "aleja Grunwaldzka 411", "is_hq": false, "state": "PM"}, {"country": "US", "city": "Englewood", "postal_code": "80112", "line_1": "9655 Maroon Circle", "is_hq": false, "state": "CO"}, {"country": "CH", "city": "Zurich", "postal_code": "8005", "line_1": "Hardstrasse 201 Prime Tower office 18th floor", "is_hq": false, "state": null}, {"country": "DE", "city": "Munich", "postal_code": "81669", "line_1": "St.-Martin-Stra\u00dfe 106", "is_hq": false, "state": "BY"}, {"country": "NO", "city": "Oslo", "postal_code": "0277", "line_1": "Drammensveien 145B", "is_hq": false, "state": "Oslo"}, {"country": "LT", "city": "Vilnius", "postal_code": "03116", "line_1": "Savanoriu prospektas 16", "is_hq": false, "state": "Vilniaus"}, {"country": "CL", "city": "Santiago", "postal_code": "8320000", "line_1": "Calle Miraflores 222", "is_hq": false, "state": "Santiago Metropolitan"}, {"country": "DK", "city": "Copenhagen", "postal_code": "1253", "line_1": "Toldbodgade", "is_hq": false, "state": "Capital Region"}, {"country": "ES", "city": "l'Hospitalet de Llobregat", "postal_code": "08908", "line_1": "Placa d'Europa", "is_hq": false, "state": "Catalonia"}, {"country": "AR", "city": "Buenos Aires", "postal_code": null, "line_1": "Calle Moreno no. 845 to 899 on the corner of Calle Tacuar\u00ed no. 242 to 292", "is_hq": false, "state": null}, {"country": "AR", "city": "Buenos Aires", "postal_code": null, "line_1": "Tucum\u00e1n 3720, Bulnes Street", "is_hq": false, "state": null}, {"country": "AU", "city": "Barangaroo", "postal_code": null, "line_1": "200 Barangaroo Avenue", "is_hq": false, "state": "New South Wales"}, {"country": "PH", "city": "Taguig City ", "postal_code": "1634", "line_1": "Science Hub Tower 4, 1110 Campus Avenue, Mckinley Hill Cyber Park 1st-4th floor", "is_hq": false, "state": null}], "name": "Cognizant", "tagline": null, "universal_name_id": "cognizant", "profile_pic_url": "https://s3.us-west-000.backblazeb2.com/proxycurl/company/cognizant/profile?X-Amz-Algorithm=AWS4-HMAC-SHA256&X-Amz-Credential=0004d7f56a0400b0000000001%2F20241120%2Fus-west-000%2Fs3%2Faws4_request&X-Amz-Date=20241120T051932Z&X-Amz-Expires=3600&X-Amz-SignedHeaders=host&X-Amz-Signature=245457fc774d7dc57474d90f40b226cad2cfba7ee0fd9e831c329f40006f5e81", "background_cover_image_url": "https://s3.us-west-000.backblazeb2.com/proxycurl/company/cognizant/cover?X-Amz-Algorithm=AWS4-HMAC-SHA256&X-Amz-Credential=0004d7f56a0400b0000000001%2F20241120%2Fus-west-000%2Fs3%2Faws4_request&X-Amz-Date=20241120T051932Z&X-Amz-Expires=3600&X-Amz-SignedHeaders=host&X-Amz-Signature=70749b4a3ad3a60acdbef71b2fd8c213263728d5d01aee2f8df52f1992fb64fc", "search_id": "1680", "similar_companies": [{"name": "Tata Consultancy Services", "link": "https://in.linkedin.com/company/tata-consultancy-services", "industry": "IT Services and IT Consulting", "location": "Mumbai, Maharashtra"}, {"name": "Infosys", "link": "https://in.linkedin.com/company/infosys", "industry": "IT Services and IT Consulting", "location": "Bangalore, Karnataka"}, {"name": "Accenture", "link": "https://ie.linkedin.com/company/accenture", "industry": "Business Consulting and Services", "location": null}, {"name": "Wipro", "link": "https://in.linkedin.com/company/wipro", "industry": "IT Services and IT Consulting", "location": "Bangalore, Karnataka"}, {"name": "Capgemini", "link": "https://fr.linkedin.com/company/capgemini", "industry": "Business Consulting and Services", "location": "Paris, France"}, {"name": "Deloitte", "link": "https://www.linkedin.com/company/deloitte", "industry": "Business Consulting and Services", "location": null}, {"name": "Tech Mahindra", "link": "https://in.linkedin.com/company/tech-mahindra", "industry": "IT Services and IT Consulting", "location": "Pune, Maharashtra"}, {"name": "IBM", "link": "https://www.linkedin.com/company/ibm", "industry": "IT Services and IT Consulting", "location": "Armonk, New York, NY"}, {"name": "HCLTech", "link": "https://in.linkedin.com/company/hcltech", "industry": "IT Services and IT Consulting", "location": "Noida, Uttar Pradesh"}, {"name": "Genpact", "link": "https://www.linkedin.com/company/genpact", "industry": "Business Consulting and Services", "location": "New York, NY"}], "affiliated_companies": [{"name": "Belcan", "link": "https://www.linkedin.com/company/belcan-engineering", "industry": "IT Services and IT Consulting", "location": "Cincinnati, OH"}, {"name": "Cognizant Netcentric", "link": "https://ch.linkedin.com/company/cognizantnetcentric", "industry": "IT Services and IT Consulting", "location": null}, {"name": "Cognizant Life Sciences Manufacturing", "link": "https://ie.linkedin.com/company/cognizant-life-sciences-manufacturing", "industry": "Automation Machinery Manufacturing", "location": null}, {"name": "Devbridge", "link": "https://www.linkedin.com/company/devbridge", "industry": "IT Services and IT Consulting", "location": "Chicago, Illinois"}, {"name": "Thirdera", "link": "https://www.linkedin.com/company/thirdera", "industry": "IT Services and IT Consulting", "location": "Broomfield, Colorado"}, {"name": "Zone", "link": "https://uk.linkedin.com/company/zone", "industry": "Business Consulting and Services", "location": "London, England"}, {"name": "TriZetto Healthcare Products", "link": "https://www.linkedin.com/company/trizetto-healthcare-products", "industry": "IT Services and IT Consulting", "location": "Teaneck, NJ"}, {"name": "Cognizant Microsoft Business Group", "link": "https://www.linkedin.com/company/cognizantmbg", "industry": "IT Services and IT Consulting", "location": null}, {"name": "Cognizant Digital Experience", "link": "https://nl.linkedin.com/showcase/cognizant-dx/", "industry": "Technology, Information and Internet", "location": null}, {"name": "TriZetto Provider Solutions", "link": "https://www.linkedin.com/company/trizettoprovider", "industry": "IT Services and IT Consulting", "location": "Earth City, MO"}, {"name": "Cognizant Consulting France", "link": "https://fr.linkedin.com/company/cc-france", "industry": "Business Consulting and Services", "location": null}, {"name": "Meritsoft, a Cognizant company", "link": "https://ie.linkedin.com/company/merit-software", "industry": "Financial Services", "location": null}, {"name": "Cognizant Events", "link": "https://www.linkedin.com/showcase/cognizant-events/", "industry": "IT Services and IT Consulting", "location": null}, {"name": "Cognizant AI", "link": "https://www.linkedin.com/showcase/cognizant-ai/", "industry": "IT Services and IT Consulting", "location": null}], "updates": [{"article_link": "https://www.cnbc.com/video/2024/10/31/ai-is-going-to-disrupt-knowledge-workers-create-upward-social-mobility-in-jobs-says-cognizant-ceo.html", "image": null, "posted_on": {"day": 1, "month": 11, "year": 2024}, "text": "Our CEO Ravi Kumar S appeared on CNBC's 'Money Movers' to discuss Cognizant's plans to use generative AI to further propel upward social mobility across the workforce, the company's Q3 earnings, and more.\n\nWatch the full interview: https://lnkd.in/exRXMBiz", "total_likes": 362}, {"article_link": null, "image": "https://media.licdn.com/dms/image/v2/D4E10AQGtD_lFHSDyvQ/image-shrink_800/image-shrink_800/0/1730325610844?e=2147483647&v=beta&t=HEuWoKQneQLJfhKL-ZMnKlUBbJ5UhzH8ur3kCI0ZW3E", "posted_on": {"day": 31, "month": 10, "year": 2024}, "text": "Cognizant #Q3FY24 financial results are here. We continued to accelerate growth and gain traction in our client wins and investments in AI-driven platforms. \n\nCheck out highlights from the third quarter \u2b07\ufe0f", "total_likes": 663}, {"article_link": null, "image": null, "posted_on": {"day": 31, "month": 10, "year": 2024}, "text": "Cognizant reports #Q3FY24 financial results. For full details, read our press release: https://cogniz.at/3NLYb8k\n\n\u27a1\ufe0f Revenue $5B, up 3% YoY\n\u27a1\ufe0f Adjusted Operating Margin | 15.3%\n\u27a1\ufe0f Closed 6 large deals >$100M TCV\n\u27a1\ufe0f Trailing 12-month bookings of $26.2B; book-to-bill of 1.3x", "total_likes": 795}, {"article_link": null, "image": "https://media.licdn.com/dms/image/v2/D4E10AQE-Ag7pe5iqZQ/image-shrink_1280/image-shrink_1280/0/1730217827547?e=2147483647&v=beta&t=ek6qwoLAtkXgaWMsxQiLSlajOFReRUnpKnEkN3lKwFw", "posted_on": {"day": 30, "month": 10, "year": 2024}, "text": "We\u2019re thrilled to announce that Cognizant has partnered with Alnylam Pharmaceuticals to transform the company's IT operations. \n\nThis collaboration aims to enhance Alnylam's operations by leveraging Cognizant's expertise to improve automation, reduce operational efforts, and ensure transparency in business decisions and unified performance accountability. \n\nTogether, we\u2019ll enable Alnylam to deliver transformative medicines. \n \nRead more: https://cogniz.at/48pqfrA", "total_likes": 297}, {"article_link": null, "image": "https://media.licdn.com/dms/image/v2/D4E10AQHUdNyo8V4zJg/image-shrink_1280/image-shrink_1280/0/1730214002189?e=2147483647&v=beta&t=D_FaxXD48x-R0bZ9bg3hbxbooKLNTv0cE6RovfQDMCY", "posted_on": {"day": 30, "month": 10, "year": 2024}, "text": "We are proud to be named to the 2024 American Opportunity Index as an Employer of Choice. \n\nThe American Opportunity Index is the only employer ranking that measures how well America\u2019s largest companies tangibly invest in their greatest asset \u2013 their employees \u2013 to drive business performance and individual career growth. \n\nRead more: https://cogniz.at/4fjtVxd", "total_likes": 316}, {"article_link": null, "image": null, "posted_on": {"day": 30, "month": 10, "year": 2024}, "text": "This latest expansion of Cognizant's collaboration with AWS Partners is designed to meet the growing market demand for IoT, data, AI and cloud adoption in Industry 4.0 applications, such as digital twins, simulations, manufacturing execution systems, edge computing, and operational technology (OT) cybersecurity solutions.\n\n\u201cWith Cognizant\u2019s technology IP and platform and industry expertise built on AWS and leveraging AWS\u2019 advanced IoT and AI services, manufacturers will have access to high-quality levels of support and guidance to adopt smart manufacturing methodologies and achieve the associated benefits,\u201d said Ozgur Tohumcu, GM Automotive and Manufacturing at AWS.\n\nRead the release: https://cogniz.at/3NH7fLw", "total_likes": 459}, {"article_link": null, "image": null, "posted_on": {"day": 29, "month": 10, "year": 2024}, "text": "Implementing AI across your enterprise doesn't have to be difficult. Cognizant's Neuro (R) AI platform streamlines the entire process with powerful AI assistants, or agents, that transform data into actionable decisioning strategies. \n\nSwipe to learn how each agent works together to expand AI-powered decision-making, and discover their potential for your specific business needs.\n\nRead more: https://cogniz.at/4fk4ziP", "total_likes": 292}, {"article_link": null, "image": "https://media.licdn.com/dms/image/v2/D4E05AQGkNNDZbymE4w/feedshare-thumbnail_720_1280/feedshare-thumbnail_720_1280/0/1729797890820?e=2147483647&v=beta&t=YeO4JAXwjjzXgGPdW8uYQUISGRlvhxABPdMbPiXhzHw", "posted_on": {"day": 28, "month": 10, "year": 2024}, "text": "Bill McDermott joined CNBC to share his observations from Q3 2024. Listen to the $NOW earnings call replay for more: https://lnkd.in/eUYuu6xT", "total_likes": 2805}, {"article_link": null, "image": "https://media.licdn.com/dms/image/v2/D4E10AQGhC3rwniv6TA/image-shrink_1280/image-shrink_1280/0/1729778784611?e=2147483647&v=beta&t=q6wu7u5VR1j8MXT03472Fd3AVIRQaeFklmufP9o4cw4", "posted_on": {"day": 28, "month": 10, "year": 2024}, "text": "We are thrilled to announce Cognizant has been ranked no. 10 on Newsweek's list of America's Most Reliable Companies 2025. \n \nThis recognition highlights businesses that provide exceptional reliability for clients through dependable actions and decisions. \n \nNewsweek, in collaboration with Statista, surveyed more than 1,700 decision-makers who do business with B2B companies across the country. The survey asked participants to rank companies based on likelihood of recommendation, ease of doing business, value for money, consistency of deliverables, and reputation for dependability. \n \nWe'd like to thank our associates for continuing to deliver exceptional results for our clients.\n \nRead more: https://lnkd.in/eFz4HG7T", "total_likes": 647}, {"article_link": null, "image": "https://media.licdn.com/dms/image/v2/D4E10AQF2IeHjXzY0Mg/videocover-high/videocover-high/0/1729750119626?e=2147483647&v=beta&t=TE6yqTuZUScuB5VL4lcrokwpdU3Y-hpW5SWXKq7Gob4", "posted_on": {"day": 28, "month": 10, "year": 2024}, "text": "As enterprises increasingly migrate their systems to the #cloud, they encounter significant challenges in controlling and optimizing their cloud expenditures.\n \nThe rapid growth of data and the need for real-time analytics have led to escalating costs and performance bottlenecks.\n \nTraditional CPU-based methods can fall short in handling large-scale data processing efficiently, leading to higher potential operational costs and slower organizational decision-making.\n \nTo address the growing challenges enterprises face in controlling cloud computing costs, we\u2019re enhancing our data modernization offering by leveraging the full stack NVIDIA accelerated computing platform, including NVIDIA RAPIDS, part of the NVIDIA AI Enterprise software platform, along with the Cognizant Data and Intelligence Toolkit.\n \n\u201cOur latest collaboration with NVIDIA aims to transform the way businesses process and analyze large datasets, delivering, we believe, unprecedented speed and efficiency,\u201d said Annadurai Elango, EVP and Global Head of Core Technologies and Insights at Cognizant.", "total_likes": 358}], "follower_count": 7731574, "acquisitions": null, "exit_data": null, "extra": null, "funding_data": [], "categories": null, "customer_list": null}
