{"linkedin_internal_id": "1038", "description": "Deloitte drives progress. Our firms around the world help clients become leaders wherever they choose to compete. Deloitte invests in outstanding people of diverse talents and backgrounds and empowers them to achieve more than they could elsewhere. Our work combines advice with action and integrity. We believe that when our clients and society are stronger, so are we. \n\nDeloitte refers to one or more of Deloitte Touche Tohmatsu Limited (\u201cDTTL\u201d), its global network of member firms, and their related entities. DTTL (also referred to as \u201cDeloitte Global\u201d) and each of its member firms are legally separate and independent entities. DTTL does not provide services to clients. Please see www.deloitte.com/about to learn more.\n\nThe content on this page contains general information only, and none of Deloitte Touche Tohmatsu Limited, its member firms, or their related entities (collectively the \u201cDeloitte Network\u201d) is, by means of this publication, rendering professional advice or services. Before making any decision or taking any action that may affect your finances or your business, you should consult a qualified professional adviser. No entity in the Deloitte Network shall be responsible for any loss whatsoever sustained by any person who relies on content from this page.", "website": "http://www.deloitte.com/", "industry": "Business Consulting and Services", "company_size": [10001, null], "company_size_on_linkedin": 446539, "hq": {"country": null, "city": "Worldwide", "postal_code": null, "line_1": "Worldwide", "is_hq": true, "state": "OO"}, "company_type": "PRIVATELY_HELD", "founded_year": 1845, "specialities": ["Audit", "Consulting", "Financial Advisory", "Risk Management", "Tax Services"], "locations": [{"country": null, "city": "Worldwide", "postal_code": null, "line_1": "Worldwide", "is_hq": true, "state": "OO"}, {"country": "US", "city": "New York", "postal_code": "10112", "line_1": "30 Rockefeller Plaza", "is_hq": false, "state": "NY"}, {"country": "HK", "city": "Central & Western", "postal_code": null, "line_1": "88 Queensway", "is_hq": false, "state": "Hong Kong"}, {"country": "FR", "city": "Neuilly-sur-Seine", "postal_code": "92200", "line_1": "185 Avenue Charles de Gaulle", "is_hq": false, "state": "IdF"}, {"country": "LV", "city": "Riga", "postal_code": "1019", "line_1": "Gredu Str. 4a", "is_hq": false, "state": "LV-"}, {"country": "EE", "city": "Tallinn", "postal_code": "10119", "line_1": "Roosikrantsi 2", "is_hq": false, "state": null}, {"country": "CL", "city": "Santiago", "postal_code": null, "line_1": "Calle Rosario Norte 407", "is_hq": false, "state": "Santiago Metropolitan"}, {"country": "GT", "city": "de Guatamala", "postal_code": null, "line_1": "22 Calle 15, Cdad.", "is_hq": false, "state": null}, {"country": "AT", "city": "Vienna", "postal_code": "1010", "line_1": "Renngasse 1", "is_hq": false, "state": null}, {"country": "AL", "city": "Tirana", "postal_code": null, "line_1": "Rruga Faik Konica, Nd\u00ebrtesa nr. 6 Hyrja nr 7,  1010", "is_hq": false, "state": null}, {"country": "AR", "city": "Buenos Aires", "postal_code": null, "line_1": "Florida 234 Piso 5\u00b0 CABA, Buenos Aires C1005AAF Argentina", "is_hq": false, "state": null}, {"country": "BR", "city": "S\u00e3o Paulo", "postal_code": null, "line_1": "Av. Dr. Chucri Zaidan, 1.240 From 4th to 12th floors - Golden Tower", "is_hq": false, "state": null}, {"country": "BG", "city": "Sofia", "postal_code": null, "line_1": "103, Alexander Stambolijski Blvd. Sofia Tower (Mall of Sofia)", "is_hq": false, "state": null}, {"country": "CO", "city": "Bogot\u00e1", "postal_code": null, "line_1": "Carrera 9 # 78 \u2013 31 Bogot\u00e1 DC, Colombia", "is_hq": false, "state": null}, {"country": "CR", "city": "Heredia", "postal_code": null, "line_1": "Heredia Edificio Deloitte Centro Corporativo El Cafetal La Ribera de Bel\u00e9n, Heredia", "is_hq": false, "state": null}, {"country": "HR", "city": "Zagreb", "postal_code": null, "line_1": "Deloitte d.o.o. ZagrebTower Radni\u010dka cesta 80", "is_hq": false, "state": null}, {"country": "BA", "city": "Sarajevo", "postal_code": null, "line_1": "Zmaja od Bosne 12c", "is_hq": false, "state": null}, {"country": "CY", "city": "Nicosia", "postal_code": null, "line_1": "Nicosia office 24 Spyrou Kyprianou Avenue", "is_hq": false, "state": null}, {"country": "DO", "city": "Santo Domingo", "postal_code": null, "line_1": "Edificio Deloitte Calle Rafael Augusto S\u00e1nchez No. 65 Ensanche Piantini", "is_hq": false, "state": null}, {"country": "SV", "city": "San Salvador", "postal_code": null, "line_1": "Avante Penthouse Building Offices 10-01 and 10-03.", "is_hq": false, "state": null}, {"country": "HN", "city": "Tegucigalpa", "postal_code": "", "line_1": "Plaza Am\u00e9rica Building Colonia Florencia Norte P.O. Box: 3878", "is_hq": false, "state": null}, {"country": "HU", "city": "Budapest", "postal_code": null, "line_1": "D\u00f3zsa Gy\u00f6rgy street 84/C", "is_hq": false, "state": null}, {"country": "JP", "city": "Tokyo", "postal_code": null, "line_1": "Marunouchi Nijubashi Building 3-2-3 Marunouchi, Chiyoda-ku (Reception 17F)", "is_hq": false, "state": null}, {"country": "LT", "city": "Vilnius", "postal_code": null, "line_1": "Jogailos st. 4 4th floor", "is_hq": false, "state": null}, {"country": "MT", "city": "Valletta", "postal_code": null, "line_1": "Deloitte Place, Triq L-Intornjatur, Central Business District, CBD 3050", "is_hq": false, "state": null}, {"country": "MX", "city": "Mexico City", "postal_code": null, "line_1": "Paseo de la Reforma 505 Piso 28 Colonia Cuauht\u00e9moc", "is_hq": false, "state": null}, {"country": "MN", "city": "Beirut", "postal_code": null, "line_1": "15/F, ICC Tower, Jamiyan-Gun Street 1st Khoroo, Sukhbaatar District Gefinor Center, Block D Clemenceau Street", "is_hq": false, "state": "Ulaanbaatar"}, {"country": "NI", "city": "Managua", "postal_code": "", "line_1": "Los Robles No. 351", "is_hq": false, "state": null}, {"country": "PL", "city": "Warsaw", "postal_code": null, "line_1": "al. Jana Paw\u0142a II 22 Warszawa, Mazowieckie", "is_hq": false, "state": null}, {"country": "PT", "city": "Lisbon", "postal_code": null, "line_1": "Deloitte Hub Av. Eng. Duarte Pacheco, 7", "is_hq": false, "state": null}, {"country": "SG", "city": "Singapore", "postal_code": null, "line_1": "6 Shenton Way, OUE Downtown 2 #33-00", "is_hq": false, "state": null}, {"country": "SK", "city": "Bratislava", "postal_code": null, "line_1": "Digital Park II Einsteinova 23 851 01 Bratislava", "is_hq": false, "state": null}, {"country": "SI", "city": "Ljubljana", "postal_code": null, "line_1": "Dunajska cesta 165 1. nadstropje B objekta Rotonda Ljubljana 1000", "is_hq": false, "state": null}, {"country": "NG", "city": "Lagos", "postal_code": "", "line_1": "Civic Towers Plot GA 1 Ozumba Mbadiwe Avenue Victoria Island, Lagos", "is_hq": false, "state": null}, {"country": "NZ", "city": "Auckland", "postal_code": null, "line_1": "Deloitte Centre Levels 12-18 80 Queen Street Auckland, 1010", "is_hq": false, "state": null}, {"country": "GH", "city": "Accra", "postal_code": null, "line_1": "The Deloitte Place Plot No. 71, Off George Walker Bush Highway North Dzorwulu P.O. Box GP 453", "is_hq": false, "state": null}, {"country": "PY", "city": "Asunci\u00f3n", "postal_code": null, "line_1": "Av. Brasilia 767", "is_hq": false, "state": null}, {"country": "IE", "city": "Dublin", "postal_code": null, "line_1": "Deloitte Ireland LLP 29 Earlsfort Terrace", "is_hq": false, "state": null}, {"country": "BM", "city": "Hamilton", "postal_code": null, "line_1": "Corner House 20 Parliament Street", "is_hq": false, "state": null}, {"country": "KY", "city": "Grand Cayman", "postal_code": null, "line_1": "One Capital Place (OCP) 136 Shedden Road George Town P.O. Box 1787", "is_hq": false, "state": null}, {"country": "UA", "city": "Kyiv", "postal_code": null, "line_1": "48, 50A, Zhylyanska Street, Kyiv, 01033", "is_hq": false, "state": null}, {"country": "GE", "city": "Tbilisi", "postal_code": null, "line_1": "King David Business Center,15th floor,12 Merab Aleksidze Street", "is_hq": false, "state": null}, {"country": "KZ", "city": "Almanty", "postal_code": null, "line_1": "Almaty Financial District, 36 Al Farabi Ave, 5 floor", "is_hq": false, "state": null}, {"country": "AZ", "city": "Baku", "postal_code": null, "line_1": "Baku White City Office Building, 25E Nobel Avenue", "is_hq": false, "state": null}, {"country": "CZ", "city": "Prague", "postal_code": null, "line_1": "Churchill I Italsk\u00e1 2581/67", "is_hq": false, "state": null}, {"country": "RO", "city": "Bucharest", "postal_code": null, "line_1": "The Mark Tower, 82 - 98 Calea Grivitei, 14th Floor, District 1", "is_hq": false, "state": null}, {"country": "VE", "city": "Caracas", "postal_code": null, "line_1": "Av. Bland\u00edn. Torre BOD Piso 21. La Castellana.", "is_hq": false, "state": null}, {"country": "BJ", "city": "Cotonou", "postal_code": null, "line_1": "Rue 102 Guinkomey Immeuble face ex-coll\u00e8ge la Fl\u00e8che", "is_hq": false, "state": null}, {"country": "TG", "city": "Lome", "postal_code": null, "line_1": "63 boulevard du 13 janvier Ny\u00e9konakpo\u00e8", "is_hq": false, "state": null}, {"country": "TN", "city": "Tunis", "postal_code": null, "line_1": "Rue du Lac Oubeira Immeuble Illiade, 1053", "is_hq": false, "state": null}, {"country": "CA", "city": "Toronto", "postal_code": null, "line_1": "8 Adelaide St W Suite 200", "is_hq": false, "state": null}, {"country": "ES", "city": "Madrid ", "postal_code": null, "line_1": "Plaza Pablo Ruiz Picasso, 1, 28020", "is_hq": false, "state": null}, {"country": "AU", "city": "Canberra", "postal_code": "2609", "line_1": "8 Brindabella Circuit Brindabella Business Park", "is_hq": false, "state": "Australian Capital Territory"}, {"country": "AU", "city": "Sydney", "postal_code": "2000", "line_1": "225 George St", "is_hq": false, "state": "New South Wales"}, {"country": "AU", "city": "Parramatta", "postal_code": "2150", "line_1": "10 Darcy St", "is_hq": false, "state": "New South Wales"}, {"country": "AU", "city": "Darwin City", "postal_code": "0800", "line_1": "24 Mitchell St", "is_hq": false, "state": "Northern Territory"}, {"country": "AU", "city": "Brisbane City", "postal_code": "4000", "line_1": "123 Eagle St Level 23 Riverside Centre", "is_hq": false, "state": "Queensland"}, {"country": "AU", "city": "Adelaide", "postal_code": "5000", "line_1": "11 Waymouth St Level 17", "is_hq": false, "state": "South Australia"}, {"country": "AU", "city": "Dulwich", "postal_code": "5065", "line_1": "170 Fullarton Rd Level 2", "is_hq": false, "state": "South Australia"}, {"country": "AU", "city": "Hobart", "postal_code": "7000", "line_1": "22 Elizabeth St Level 8", "is_hq": false, "state": "Tasmania"}, {"country": "AU", "city": "Hobart", "postal_code": "7000", "line_1": "Tasman Hwy Level 8, 22 Elizabeth Street", "is_hq": false, "state": "Tasmania"}, {"country": "AU", "city": "Melbourne", "postal_code": "3000", "line_1": "477 Collins St", "is_hq": false, "state": "Victoria"}, {"country": "AU", "city": "Perth", "postal_code": "6000", "line_1": "123 St Georges Ter Level 7 - 9 Brookfield Place, Tower 2", "is_hq": false, "state": "Western Australia"}], "name": "Deloitte", "tagline": null, "universal_name_id": "deloitte", "profile_pic_url": "https://s3.us-west-000.backblazeb2.com/proxycurl/company/deloitte/profile?X-Amz-Algorithm=AWS4-HMAC-SHA256&X-Amz-Credential=0004d7f56a0400b0000000001%2F20241120%2Fus-west-000%2Fs3%2Faws4_request&X-Amz-Date=20241120T053149Z&X-Amz-Expires=3600&X-Amz-SignedHeaders=host&X-Amz-Signature=0332326b743984fd9004ce9b2674e3e2c5383d5a72dea3b6d7a45d4b4fae9b9b", "background_cover_image_url": "https://s3.us-west-000.backblazeb2.com/proxycurl/company/deloitte/cover?X-Amz-Algorithm=AWS4-HMAC-SHA256&X-Amz-Credential=0004d7f56a0400b0000000001%2F20241120%2Fus-west-000%2Fs3%2Faws4_request&X-Amz-Date=20241120T053149Z&X-Amz-Expires=3600&X-Amz-SignedHeaders=host&X-Amz-Signature=aeb7ccfc78f9a1e0e9250b060b611f4d12578bed2db32c7c48b087796fba25a9", "search_id": "1038", "similar_companies": [{"name": "EY", "link": "https://uk.linkedin.com/company/ernstandyoung", "industry": "IT Services and IT Consulting", "location": null}, {"name": "PwC", "link": "https://uk.linkedin.com/company/pwc", "industry": "Professional Services", "location": null}, {"name": "Accenture", "link": "https://ie.linkedin.com/company/accenture", "industry": "Business Consulting and Services", "location": null}, {"name": "Tata Consultancy Services", "link": "https://in.linkedin.com/company/tata-consultancy-services", "industry": "IT Services and IT Consulting", "location": "Mumbai, Maharashtra"}, {"name": "IBM", "link": "https://www.linkedin.com/company/ibm", "industry": "IT Services and IT Consulting", "location": "Armonk, New York, NY"}, {"name": "Google", "link": "https://www.linkedin.com/company/google", "industry": "Software Development", "location": "Mountain View, CA"}, {"name": "Amazon", "link": "https://www.linkedin.com/company/amazon", "industry": "Software Development", "location": "Seattle, WA"}, {"name": "KPMG", "link": "https://ch.linkedin.com/company/kpmg", "industry": "Accounting", "location": null}, {"name": "Cognizant", "link": "https://www.linkedin.com/company/cognizant", "industry": "IT Services and IT Consulting", "location": "Teaneck, New Jersey"}, {"name": "Infosys", "link": "https://in.linkedin.com/company/infosys", "industry": "IT Services and IT Consulting", "location": "Bangalore, Karnataka"}], "affiliated_companies": [{"name": "Deloitte Consulting", "link": "https://www.linkedin.com/showcase/deloitteconsulting/", "industry": "Business Consulting and Services", "location": "New York, New York"}, {"name": "Deloitte Digital", "link": "https://www.linkedin.com/company/deloitte-digital", "industry": "Business Consulting and Services", "location": null}, {"name": "Deloitte Insights", "link": "https://www.linkedin.com/showcase/deloitte-insights/", "industry": "Business Consulting and Services", "location": "New York, NY"}, {"name": "Deloitte University", "link": "https://www.linkedin.com/showcase/deloitte-university---the-leadership-center/", "industry": "Professional Training and Coaching", "location": "Westlake, Texas"}, {"name": "Deloitte Government & Public Services", "link": "https://www.linkedin.com/showcase/deloitte-government/", "industry": "Business Consulting and Services", "location": "Arlington, Virginia"}, {"name": "Deloitte Dbriefs", "link": "https://www.linkedin.com/showcase/deloitte-dbriefs/", "industry": "Business Consulting and Services", "location": null}, {"name": "Deloitte Private", "link": "https://www.linkedin.com/showcase/deloitte-private/", "industry": "Business Consulting and Services", "location": null}, {"name": "Deloitte Tax", "link": "https://www.linkedin.com/showcase/deloitte-tax/", "industry": "Financial Services", "location": null}, {"name": "Deloitte Sustainability", "link": "https://www.linkedin.com/showcase/deloitte-sustainability/", "industry": "Business Consulting and Services", "location": null}, {"name": "Deloitte Corporate Finance", "link": "https://www.linkedin.com/showcase/deloitte-corporate-finance/", "industry": "Financial Services", "location": null}, {"name": "Deloitte Launchpad", "link": "https://il.linkedin.com/showcase/deloitte-launchpad/", "industry": "Business Consulting and Services", "location": null}, {"name": "Leaders In Operation Excellence", "link": "https://ca.linkedin.com/company/highfield-humancapital", "industry": "Professional Services", "location": "Toronto, Ontario"}, {"name": "Helping Our Clients Find & Keep Good Customers", "link": "https://www.linkedin.com/showcase/helping-our-clients-find-&-keep-good-customers/", "industry": null, "location": null}, {"name": "Deloitte Financial Advisory", "link": "https://www.linkedin.com/showcase/deloitte-financial-advisory1/", "industry": "Financial Services", "location": null}, {"name": "Deloitte Future Of Mobility Solution Centre", "link": "https://sg.linkedin.com/showcase/deloitte-future-of-mobility-solution-centre/", "industry": "Business Consulting and Services", "location": "Singapore, Singapore"}, {"name": "Accounting and Financial Advisory Services", "link": "https://www.linkedin.com/showcase/accounting-and-financial-advisory-services/", "industry": "Accounting", "location": null}, {"name": "Propel, now part of Gravita", "link": "https://uk.linkedin.com/showcase/propel-jh-group/", "industry": "Accounting", "location": "London, England"}, {"name": "Mavi Elma Akademi", "link": "https://www.linkedin.com/showcase/muhasebe-finans-ekonomi-e%C4%9Fitimleri/", "industry": null, "location": null}, {"name": "Cornerstone Database Marketing & Insights", "link": "https://www.linkedin.com/showcase/cornerstone-database-marketing-and-insights/", "industry": "Advertising Services", "location": null}, {"name": "Macula AI - AI Based Visual Inspection", "link": "https://ca.linkedin.com/showcase/macula-ai/", "industry": "Automation Machinery Manufacturing", "location": "Montreal, Quebec"}, {"name": "Cornerstone Donation Processing & Fundraising Services", "link": "https://www.linkedin.com/showcase/cornerstone-donation-processing-&-fundraising-services/", "industry": "Advertising Services", "location": null}, {"name": "Cornerstone Digital Marketing", "link": "https://www.linkedin.com/showcase/cornerstone-digital-marketing/", "industry": "Advertising Services", "location": null}, {"name": "Cornerstone Data Products & List Services", "link": "https://www.linkedin.com/showcase/cornerstone-data-products-and-list-services/", "industry": "Advertising Services", "location": null}, {"name": "Pervorm - Cases", "link": "https://www.linkedin.com/showcase/pervorm---cases/", "industry": null, "location": null}, {"name": "cstonecompanies.com", "link": "https://www.linkedin.com/showcase/cstonecompanies-com/", "industry": null, "location": null}, {"name": "Helping Our Clients Find And Keep Good Customers", "link": "https://www.linkedin.com/showcase/helping-our-clients-find-and-keep-good-customers/", "industry": null, "location": null}, {"name": "Pervorm Cases", "link": "https://www.linkedin.com/showcase/pervorm-cases/", "industry": null, "location": null}, {"name": "KIT Retail Technology", "link": "https://uk.linkedin.com/showcase/kit-retail-technology/", "industry": "Retail", "location": "London, London"}], "updates": [{"article_link": null, "image": "https://media.licdn.com/dms/image/v2/D4E05AQE0EN5VGUcTow/videocover-high/videocover-high/0/1705334018386?e=2147483647&v=beta&t=1gu7RK_NPvMxDrlYRYLYvQJqjJ7cha5sq2qLlvIXHAI", "posted_on": {"day": 15, "month": 1, "year": 2024}, "text": "Greetings from Davos! As we gear up for the World Economic Forum annual meeting, I share my objectives for the week \u2013 3 + a bonus. Thanks to Jason M. Girzadas for the pro tips for a successful week. #DeloitteatDavos #WEF24 #ImpactThatMatters \n\nDina Tallarico Vimi Grewal-Carr Suzanne Kounkel Melinda Michael-Adams Thomas Byrd Milly Vargas Ra Shandra Clark", "total_likes": 705}, {"article_link": null, "image": "https://media.licdn.com/dms/image/v2/D4E05AQE0EN5VGUcTow/videocover-high/videocover-high/0/1705334018386?e=2147483647&v=beta&t=1gu7RK_NPvMxDrlYRYLYvQJqjJ7cha5sq2qLlvIXHAI", "posted_on": {"day": 15, "month": 1, "year": 2024}, "text": "Greetings from Davos! As we gear up for the World Economic Forum annual meeting, I share my objectives for the week \u2013 3 + a bonus. Thanks to Jason M. Girzadas for the pro tips for a successful week. #DeloitteatDavos #WEF24 #ImpactThatMatters \n\nDina Tallarico Vimi Grewal-Carr Suzanne Kounkel Melinda Michael-Adams Thomas Byrd Milly Vargas Ra Shandra Clark", "total_likes": 705}, {"article_link": null, "image": "https://media.licdn.com/dms/image/v2/D4E05AQH7lYip8cmcAw/videocover-high/videocover-high/0/1705337192217?e=2147483647&v=beta&t=xOy_RhugD1HmmrIF40xqmLwEJJpgiDSfdrEdmhm-9qU", "posted_on": {"day": 15, "month": 1, "year": 2024}, "text": "Greetings from Davos as the 2024 World Economic Forum kicks off. This is a particularly important moment to bring together leaders from around the globe. At a time of significant geopolitical tensions, it is essential that we foster open dialogue and build bridges towards a brighter future. All of us at Deloitte are proud of our strategic partnership with the World Economic Forum and look forward to a highly impactful week. I also want to thank my exceptional Deloitte colleagues for bringing their thought leadership, this week and always. \n\n#WEF24 #DavosDiary #StateofGenAI #AIInstitute #DeloitteAtDavos", "total_likes": 2506}], "follower_count": 17120010, "acquisitions": null, "exit_data": null, "extra": null, "funding_data": [], "categories": null, "customer_list": null}
