{"linkedin_internal_id": "1073", "description": "EY is building a better working world by creating new value for clients, people, society, the planet, while building trust in the capital markets.Enabled by data, AI and advanced technology, EY teams help clients shape the future with confidence and develop answers for the most pressing issues of today and tomorrow.EY teams in more than 150 countries work across a full spectrum of services in assurance, consulting, tax, strategy and transactions, strengthened by diverse ecosystem partners. Find out more about the EY global network http://ey.com/en_gl/legal-statement", "website": "http://www.ey.com", "industry": "IT Services and IT Consulting", "company_size": [10001, null], "company_size_on_linkedin": 357252, "hq": {"country": "GB", "city": "London", "postal_code": "SE1 2DA", "line_1": "6 More London Place", "is_hq": true, "state": null}, "company_type": "PRIVATELY_HELD", "founded_year": null, "specialities": ["Advisory", "Assurance", "Tax", "Transactions", "Audit", "Mergers", "M&A", "Financial Services", "Accounting", "Professional Services", "Law", "Technology", "Consulting", "Data", "Transformation", "Strategy", "Legal", "Digital transformation", "Legal", "Growth", "Managed Services"], "locations": [{"country": "GB", "city": "London", "postal_code": "SE1 2DA", "line_1": "6 More London Place", "is_hq": true, "state": null}, {"country": "BR", "city": "S\u00e3o Paulo", "postal_code": "04543-011", "line_1": "Avenida Presidente Juscelino Kubitschek, 1909", "is_hq": false, "state": "SP"}, {"country": "CN", "city": "Beijing", "postal_code": "100738", "line_1": "Level 16, Ernst & Young Tower, Oriental Plaza", "is_hq": false, "state": null}, {"country": "US", "city": "New York", "postal_code": "10036-6530", "line_1": "5 Times Square", "is_hq": false, "state": null}, {"country": "GB", "city": "London", "postal_code": "SE1 2AF", "line_1": "1 More London Place", "is_hq": false, "state": null}, {"country": "MY", "city": "Kuala Lumpur", "postal_code": "50490", "line_1": "Level 23A, Menara Milenium, Jalan Damanlela", "is_hq": false, "state": "Pusat Bandar Damansara"}, {"country": "ES", "city": "Madrid", "postal_code": "28003", "line_1": "Calle de Raimundo Fernandez, Villaverde 65", "is_hq": false, "state": "Torre Azca"}, {"country": "AU", "city": "Sydney", "postal_code": "2000", "line_1": "The EY Centre, Level 34, 200 George St", "is_hq": false, "state": "NSW"}, {"country": "NZ", "city": "Wellington", "postal_code": "6011", "line_1": "100 Willis St", "is_hq": false, "state": "Wellington"}, {"country": "CA", "city": "Toronto", "postal_code": "M5H 0B3", "line_1": "EY Tower, 100 Adelaide Street West", "is_hq": false, "state": "Ontario"}, {"country": "FR", "city": "Paris", "postal_code": "75008", "line_1": "2 Avenue Hoche", "is_hq": false, "state": "IdF"}, {"country": "IT", "city": "Milan", "postal_code": "20123", "line_1": "Via Meravigli, 12/14", "is_hq": false, "state": "Lomb."}, {"country": "GR", "city": "Marousi", "postal_code": "151 25", "line_1": "8B Chimarras Str.,", "is_hq": false, "state": "Attica"}, {"country": "HR", "city": "Zagreb", "postal_code": "10000", "line_1": "Radnicka cesta 50", "is_hq": false, "state": "Zagreb"}, {"country": "TH", "city": "Bangkok", "postal_code": "10110", "line_1": "33rd Floor, Lake Rajada Office Complex, 193/136-137 Rajadapisek Road", "is_hq": false, "state": "Klongtoey"}, {"country": "IN", "city": "New Delhi", "postal_code": "110037 ", "line_1": "3rd & 6th Floor, Wing A & B,Worldmark-1, Aero city, IGI Airport Hospitality District, Opp. Holiday Inn", "is_hq": false, "state": "Mahipalpur"}, {"country": "PL", "city": "Warszawa", "postal_code": "00-124", "line_1": "Rondo ONZ 1,", "is_hq": false, "state": "Warszawa"}, {"country": "IE", "city": "Dublin", "postal_code": null, "line_1": "Harcourt Street", "is_hq": false, "state": "County Dublin"}, {"country": "US", "city": "Chicago", "postal_code": "60606", "line_1": "155 N Wacker Dr", "is_hq": false, "state": "IL"}, {"country": "PL", "city": "Wroclaw", "postal_code": "50-130", "line_1": "ulica Rzeznicza 32/33", "is_hq": false, "state": "DS"}, {"country": "HK", "city": "Central & Western", "postal_code": null, "line_1": "1 Tim Mei Ave", "is_hq": false, "state": "Hong Kong"}, {"country": "BE", "city": "Machelen", "postal_code": "1831", "line_1": "De Kleetlaan 2B", "is_hq": false, "state": "Flemish Region"}, {"country": "AR", "city": "Buenos Aires City", "postal_code": "1002", "line_1": "25 de Mayo 487", "is_hq": false, "state": "Buenos Aires Autonomous City"}], "name": "EY", "tagline": null, "universal_name_id": "ernstandyoung", "profile_pic_url": "https://s3.us-west-000.backblazeb2.com/proxycurl/company/ernstandyoung/profile?X-Amz-Algorithm=AWS4-HMAC-SHA256&X-Amz-Credential=0004d7f56a0400b0000000001%2F20241120%2Fus-west-000%2Fs3%2Faws4_request&X-Amz-Date=20241120T045017Z&X-Amz-Expires=3600&X-Amz-SignedHeaders=host&X-Amz-Signature=ed9a1f6707baf29842d1b286f3b8590107c911e1e6366716301045fa0459623c", "background_cover_image_url": "https://s3.us-west-000.backblazeb2.com/proxycurl/company/ernstandyoung/cover?X-Amz-Algorithm=AWS4-HMAC-SHA256&X-Amz-Credential=0004d7f56a0400b0000000001%2F20241120%2Fus-west-000%2Fs3%2Faws4_request&X-Amz-Date=20241120T045017Z&X-Amz-Expires=3600&X-Amz-SignedHeaders=host&X-Amz-Signature=38956822ad1f7c3da8028dfd50fc6504904f6f94787ffa6e672edd7437c5a631", "search_id": "1073", "similar_companies": [{"name": "Aspect Security", "link": "https://www.linkedin.com/company/aspect-security", "industry": "Computer and Network Security", "location": null}, {"name": "Plaut IT Australia", "link": "https://www.linkedin.com/company/plaut-it-australia", "industry": "IT Services and IT Consulting", "location": null}, {"name": "Sonoma Partners", "link": "https://www.linkedin.com/company/sonoma-partners", "industry": "IT Services and IT Consulting", "location": null}, {"name": "CMA Strategy Consulting", "link": "https://www.linkedin.com/company/communications-media-advisors-llc", "industry": "Business Consulting and Services", "location": null}, {"name": "Cadence Economics", "link": "https://www.linkedin.com/company/cadence-economics", "industry": "Public Policy Offices", "location": null}, {"name": "Bridge Business Consulting", "link": "https://www.linkedin.com/company/bridge-business-consulting", "industry": "Business Consulting and Services", "location": null}, {"name": "Society Consulting", "link": "https://www.linkedin.com/company/societyconsulting", "industry": "IT Services and IT Consulting", "location": null}, {"name": "Citizen, Inc.", "link": "https://www.linkedin.com/company/pluscitizen", "industry": "Design Services", "location": null}], "affiliated_companies": [], "updates": [], "follower_count": 9441962, "acquisitions": null, "exit_data": null, "extra": null, "funding_data": [], "categories": null, "customer_list": null}
