{"linkedin_internal_id": "1374", "description": "Fujitsu is a global leader in digital services that transform organizations and the world around us.  We aim to make the world more sustainable by building trust in society through innovation.", "website": "http://www.fujitsu.com/", "industry": "IT Services and IT Consulting", "company_size": [10001, null], "company_size_on_linkedin": 65083, "hq": {"country": "JP", "city": null, "postal_code": null, "line_1": null, "is_hq": true, "state": null}, "company_type": "PUBLIC_COMPANY", "founded_year": null, "specialities": ["ICT", "Cloud computing", "System Integration", "Software", "Hardware", "Notebooks", "Computers", "Tablets", "IT Services", "Servers", "Infrastructure", "Internet of Things", "Digital Transformation", "Artificial Intelligence", "IT Security", "Mobile Workplace", "Hybrid IT"], "locations": [{"country": "JP", "city": null, "postal_code": null, "line_1": null, "is_hq": true, "state": null}, {"country": "GB", "city": "London", "postal_code": "W1U 3BW", "line_1": "22 Baker Street", "is_hq": true, "state": "England"}, {"country": "DE", "city": "Munich", "postal_code": "80807", "line_1": "Mies-van-der-Rohe Stra\u00dfe", "is_hq": true, "state": "Bavaria"}, {"country": "US", "city": "Sunnyvale", "postal_code": "94085", "line_1": "1250 E Arques Ave", "is_hq": true, "state": "California"}, {"country": "BE", "city": "Brussels", "postal_code": "1070", "line_1": "Square Marie Curie 12", "is_hq": true, "state": "Brussels Region"}, {"country": "LU", "city": "Luxembourg", "postal_code": null, "line_1": "Parc d'activit\u00e9s Capellen, 89c Rue Pafebruch, 8308 Mamer", "is_hq": true, "state": null}, {"country": "NL", "city": "De Meern", "postal_code": "3454 PV", "line_1": "Rijnzathe 6", "is_hq": true, "state": "Utrecht"}, {"country": "ES", "city": "Pozuelo de Alarc\u00f3n", "postal_code": "28224", "line_1": "Camino del Cerro de los Gamos, 1", "is_hq": true, "state": "Madrid"}, {"country": "PT", "city": "Lisbon", "postal_code": "1500-180", "line_1": "Torre do Colombo, Av. Col\u00e9gio Militar", "is_hq": true, "state": null}, {"country": "FR", "city": "Courbevoie", "postal_code": " 92400", "line_1": "Tour Alto, 1 place Zaha Hadid", "is_hq": true, "state": null}, {"country": "PL", "city": "Warszawa", "postal_code": "02-255", "line_1": "ul. Krakowiak\u00f3w, 36", "is_hq": true, "state": null}, {"country": "DK", "city": "Ballerup", "postal_code": "2750", "line_1": "Lautrupbjerg 9", "is_hq": true, "state": "Capital Region"}, {"country": "DK", "city": "Hasselager", "postal_code": "8361", "line_1": "Sletvej 68", "is_hq": true, "state": "Middle Jutland"}, {"country": "FI", "city": "Helsinki", "postal_code": "00380", "line_1": "Valimotie 16", "is_hq": true, "state": "Southern Finland"}, {"country": "SE", "city": "Gothenburg", "postal_code": "416 64", "line_1": "Johan Willins gata 8", "is_hq": true, "state": "Vastra Gotaland County"}, {"country": "SE", "city": "Stockholm", "postal_code": "164 55", "line_1": "Kista All\u00e9v\u00e4g 1", "is_hq": true, "state": "Stockholm County"}, {"country": "AU", "city": "Macquarie Park", "postal_code": "2113", "line_1": "118 Talavera Rd", "is_hq": true, "state": "New South Wales"}, {"country": "NZ", "city": "Wellington", "postal_code": "6011", "line_1": "141 The Terrace", "is_hq": true, "state": "Wellington Region"}, {"country": "NZ", "city": "Christchurch", "postal_code": "8024", "line_1": "1 Show Pl", "is_hq": true, "state": "Canterbury"}, {"country": "NZ", "city": "Auckland", "postal_code": "1010", "line_1": "46 Sale St", "is_hq": true, "state": null}, {"country": "US", "city": "Richardson", "postal_code": "75082", "line_1": "2821 Telecom Pkwy", "is_hq": true, "state": "Texas"}, {"country": "IN", "city": "Pune", "postal_code": "411 062", "line_1": "MIDC Technology Park, Talawade", "is_hq": true, "state": "Maharashtra"}, {"country": "CR", "city": "Heredia", "postal_code": "40104", "line_1": "Ultrapark I, Building 6B", "is_hq": true, "state": "Heredia Province"}, {"country": "PL", "city": "\u0141\u00f3d", "postal_code": "17 90-344", "line_1": "Textorial Park ul. Fabryczna", "is_hq": true, "state": null}, {"country": "JM", "city": "Kingston", "postal_code": null, "line_1": "18 Belmont Road", "is_hq": true, "state": null}, {"country": "BR", "city": "Bela Vista", "postal_code": "01327-905", "line_1": "Rua Treze de Maio", "is_hq": true, "state": "Sao Paulo"}, {"country": "PL", "city": "Warszawa", "postal_code": "02-255", "line_1": "ul. Krakowiak\u00f3w, ", "is_hq": true, "state": "Warszawa"}], "name": "Fujitsu", "tagline": null, "universal_name_id": "fujitsu", "profile_pic_url": "https://s3.us-west-000.backblazeb2.com/proxycurl/company/fujitsu/profile?X-Amz-Algorithm=AWS4-HMAC-SHA256&X-Amz-Credential=0004d7f56a0400b0000000001%2F20241120%2Fus-west-000%2Fs3%2Faws4_request&X-Amz-Date=20241120T045010Z&X-Amz-Expires=3600&X-Amz-SignedHeaders=host&X-Amz-Signature=f14da00d2cd6bdddd9cd1c720b9ebdbe576702ecd648218d4efbdada6579b2b9", "background_cover_image_url": "https://s3.us-west-000.backblazeb2.com/proxycurl/company/fujitsu/cover?X-Amz-Algorithm=AWS4-HMAC-SHA256&X-Amz-Credential=0004d7f56a0400b0000000001%2F20241120%2Fus-west-000%2Fs3%2Faws4_request&X-Amz-Date=20241120T045010Z&X-Amz-Expires=3600&X-Amz-SignedHeaders=host&X-Amz-Signature=5a17cd508757ab464539f48a809331dff3783d46718a92536ac41aa3e06ff9e5", "search_id": "1374", "similar_companies": [{"name": "IBM", "link": "https://www.linkedin.com/company/ibm/", "industry": "IT Services and IT Consulting", "location": null}, {"name": "Accenture", "link": "https://www.linkedin.com/company/accenture/", "industry": "Business Consulting and Services", "location": null}, {"name": "Deloitte", "link": "https://www.linkedin.com/company/deloitte/", "industry": "Business Consulting and Services", "location": null}, {"name": "Capgemini", "link": "https://www.linkedin.com/company/capgemini/", "industry": "IT Services and IT Consulting", "location": null}, {"name": "Cognizant", "link": "https://www.linkedin.com/company/cognizant/", "industry": "IT Services and IT Consulting", "location": null}, {"name": "Tata Consultancy Services", "link": "https://www.linkedin.com/company/tata-consultancy-services/", "industry": "IT Services and IT Consulting", "location": null}, {"name": "EY", "link": "https://www.linkedin.com/company/ernstandyoung/", "industry": "IT Services and IT Consulting", "location": null}, {"name": "Microsoft", "link": "https://www.linkedin.com/company/microsoft/", "industry": "Software Development", "location": null}, {"name": "HCLTech", "link": "https://www.linkedin.com/company/hcltech/", "industry": "IT Services and IT Consulting", "location": null}, {"name": "Infosys", "link": "https://www.linkedin.com/company/infosys/", "industry": "IT Services and IT Consulting", "location": null}, {"name": "Google", "link": "https://www.linkedin.com/company/google/", "industry": "Software Development", "location": null}, {"name": "Amazon", "link": "https://www.linkedin.com/company/amazon/", "industry": "Software Development", "location": null}, {"name": "Wipro", "link": "https://www.linkedin.com/company/wipro/", "industry": "IT Services and IT Consulting", "location": null}, {"name": "Oracle", "link": "https://www.linkedin.com/company/oracle/", "industry": "IT Services and IT Consulting", "location": null}, {"name": "Atos", "link": "https://www.linkedin.com/company/atos/", "industry": "IT Services and IT Consulting", "location": null}, {"name": "Tech Mahindra", "link": "https://www.linkedin.com/company/tech-mahindra/", "industry": "IT Services and IT Consulting", "location": null}, {"name": "DXC Technology", "link": "https://www.linkedin.com/company/dxctechnology/", "industry": "IT Services and IT Consulting", "location": null}, {"name": "Siemens", "link": "https://www.linkedin.com/company/siemens/", "industry": "Automation Machinery Manufacturing", "location": null}, {"name": "CGI", "link": "https://www.linkedin.com/company/cgi/", "industry": "IT Services and IT Consulting", "location": null}, {"name": "Fujitsu Asia Pacific", "link": "https://www.linkedin.com/company/fujitsu-asia-pacific/", "industry": "IT Services and IT Consulting", "location": null}], "affiliated_companies": [{"name": "Fujitsu Security", "link": "https://www.linkedin.com/showcase/fujitsu-security/", "industry": "IT Services and IT Consulting", "location": null}, {"name": "Fujitsu in Defence and National Security", "link": "https://www.linkedin.com/showcase/fujitsu-in-defence-and-national-security/", "industry": "Information Technology & Services", "location": null}, {"name": "Fujitsu Partner Ecosystem EMEA", "link": "https://www.linkedin.com/showcase/fujitsu-partner-ecosystem/", "industry": "IT Services and IT Consulting", "location": null}, {"name": "Fujitsu ServiceNow", "link": "https://www.linkedin.com/showcase/fujitsuservicenow/", "industry": "IT Services and IT Consulting", "location": null}, {"name": "Fujitsu Customer Stories", "link": "https://www.linkedin.com/showcase/fujitsu-customer-stories/", "industry": "IT Services and IT Consulting", "location": null}, {"name": "Fujitsu Asia Pacific", "link": "https://www.linkedin.com/company/fujitsu-asia-pacific/", "industry": "IT Services and IT Consulting", "location": null}, {"name": "Fujitsu Portugal", "link": "https://www.linkedin.com/company/fujitsuportugal/", "industry": "Information Technology & Services", "location": null}, {"name": "Fujitsu Network Communications", "link": "https://www.linkedin.com/company/fujitsu-network-communications/", "industry": "Telecommunications", "location": null}, {"name": "Fujitsu Poland Career", "link": "https://www.linkedin.com/showcase/fujitsu-poland-career/", "industry": "IT Services and IT Consulting", "location": null}, {"name": "Fujitsu Global Supply Chain Unit ", "link": "https://www.linkedin.com/showcase/global-supply-chain-unit-/", "industry": "Information Technology & Services", "location": null}, {"name": "Fujitsu Women's Innovative Network (WIN)", "link": "https://www.linkedin.com/showcase/fujitsu-win/", "industry": "IT Services and IT Consulting", "location": null}], "updates": [{"article_link": "https://www.linkedin.com/posts/fujitsu_privacy-zkp-security-activity-7264608512582815746-Z5NY", "image": "https://media.licdn.com/dms/image/v2/D4E10AQHQGFWqB4iFLQ/image-shrink_1280/image-shrink_1280/0/1732017633975?e=1732676400&v=beta&t=VGkrRk2nHXHxuHE6g1msEsRGSZ1m62I7jeoPEteXQOQ", "posted_on": {"day": 19, "month": 11, "year": 2024}, "text": "Imagine you know a secret and want to prove to someone that you know the answer\u2014without actually revealing it. Sounds interesting, right? Welcome to the new era with Zero-Knowledge Proof (ZKP). This technology enhances privacy, scalability, and security across various industries. Dive into this article to learn more: https://okt.to/1lPQbv\n\n#Privacy #ZKP #Security #Scalability", "total_likes": 16}, {"article_link": "https://www.linkedin.com/posts/fujitsu_aws-awsreinvent-digitaltransformation-activity-7264578473157914625--G7v", "image": "https://media.licdn.com/dms/image/v2/D4E10AQH6-ExFBKv2qg/image-shrink_1280/image-shrink_1280/0/1732010458943?e=1732676400&v=beta&t=C3iAT9BdGULXeVhVEGE4_QcTVpFLMLfjB9T8Md_1PDk", "posted_on": {"day": 19, "month": 11, "year": 2024}, "text": "Las Vegas, here we come! From December 2-6, we\u2019ll be at AWS re:Invent to showcase how we are helping to shape the future. As a platinum sponsor, we\u2019re not just attending; we\u2019re bringing you exclusive insights and innovations that drive success. Don\u2019t miss out! Join us at booth #544 and come to our exclusive breakout session to learn what\u2019s next for digital transformation. Get all the details here: https://okt.to/qXjYS2\n\n#AWS #AWSreInvent #DigitalTransformation #Uvance #AI #LasVegas", "total_likes": 21}, {"article_link": "https://www.linkedin.com/posts/fujitsu_logistics-unfiedlogistics-sustainability-activity-7264261256973316096-TcsM", "image": "https://media.licdn.com/dms/image/v2/D4E10AQG_cFISlRV5cg/image-shrink_1280/image-shrink_1280/0/1731934841217?e=1732676400&v=beta&t=06C3C7ERvIN614TetC99syDQ1s-OmjoXPKGtv2akzO4", "posted_on": {"day": 19, "month": 11, "year": 2024}, "text": "Labor shortages, transport capacity issues, and environmental impacts are some of the challenges facing the logistics and transportation sector. Technology, particularly AI, is key to overcoming these obstacles and enable companies to optimize operations, improve efficiency and build a more sustainable supply chain. Discover how to achieve these goals with Fujitsu Unified Logistics solutions. Dive into our latest eBook here for all the insights: https://okt.to/SmHbGu\n\n#Logistics #UnfiedLogistics #Sustainability #SustainableSupplyChain #Efficiency #FujitsuUvance", "total_likes": 27}, {"article_link": "https://www.linkedin.com/posts/fujitsu_supercomputer-fugaku-retains-first-place-activity-7264638784720269313-_2Gn", "image": null, "posted_on": {"day": 19, "month": 11, "year": 2024}, "text": "Fugaku retains the #1 spot! This supercomputer, jointly developed with RIKEN, has maintained first place for 10 consecutive terms in two major high-performance rankings (HPCG and Graph500 BFS). Get all the details here: https://okt.to/B1MVb6\n\n#Fugaku #SuperComputer #RIKEN", "total_likes": 35}, {"article_link": "https://www.linkedin.com/posts/cionet-netherlands_cionet-cio-ciocommunity-activity-7263200755740819456-3hM7", "image": "https://media.licdn.com/dms/image/v2/D4E22AQGjfwmBtFmlcg/feedshare-shrink_2048_1536/feedshare-shrink_2048_1536/0/1731682002433?e=1735171200&v=beta&t=LDg98I0w8U1rBBRKTvnO1So9L7unOUV8SFxbKoH8neA", "posted_on": {"day": 16, "month": 11, "year": 2024}, "text": "A Night of Insight: Digital Leaders Vision Dinner about AI and Privacy: The Strategic Roadmap for Digital Leaders \ud83d\udca1 \n \nOn November 14, 2024, CIONET Netherlands hosted an exclusive Digital Leaders Vision Dinner powered by Fujitsu with 16 top CIOs and digital leaders at the prestigious Aan de Poel in Amstelveen. The theme? AI and Privacy: The Strategic Roadmap for Digital Leaders.\n\nAI\u2019s rapid evolution offers boundless opportunities for innovation but also poses significant challenges around privacy, data sovereignty, and ethical compliance. During this intimate dinner, we explored how digital leaders can integrate AI innovation while safeguarding these critical elements.\n\nKey Topics:\n> Best Practices for AI-Governance and Innovative Leadership\n> How can your organization implement robust AI governance to mitigate risks and maximize value?\n> Strategic Data Sovereignty and Security\n> How do you build a future-proof data infrastructure that\u2019s globally scalable yet locally compliant?\n> Ethical and Responsible AI Implementation\n> How can AI solutions meet regulatory demands while being sustainable and socially responsible?\n\nExpert Insights & Moderation\nWe were privileged to have Udo Wuertz, Chief Data Officer at Fujitsu, share his expertise. The evening was expertly moderated by Jeroen Kleinhoven, Partner at CIONET Netherlands.\n\nThe digital leaders attending engaged in a rich exchange of ideas and best practices.\n\nDiscussion Highlights:\n>What\u2019s the primary barrier to GenAI adoption in your organization?\n>How mature is your GenAI strategy today?\n>The conversation was dynamic, insightful, and deeply valuable, guided by printed handouts and structured dialogue.\n\n\u2705  Limited Seats Available for Future Events\nInterested in joining our next Digital Leaders Vision Dinner? Seats are limited, and we\u2019d love to reserve a spot for you. Let\u2019s connect to explore how your organization can lead the way in AI and privacy innovation.\n\nShirley Pfeiffer Richard Hilhorst Manuela Krull-Mancinelli Kim Grondsma Maurice Rijnen Juul van Bracht Harry Heijes Vincent van Geerestein Joeri Koehof Dem van Zoelen Joshua Serr\u00e3o Rick Roetman Marjolijn van Kempen Jeroen Kleinhoven\n\n#CIONET #CIO #CIOcommunity #digitalleaderscommunity #DigitalLeadership #AI #Privacy #Innovation #Governance", "total_likes": 33}, {"article_link": "https://www.linkedin.com/posts/fujitsu_five-ways-to-reduce-shrinkage-and-boost-profits-activity-7262766346092834817-rHCL", "image": null, "posted_on": {"day": 15, "month": 11, "year": 2024}, "text": "Recent reports suggest that retailers lost over $121.6 billion to theft in 2023, with predictions that this number will surpass $150 billion by 2026. How can you protect your business from this issue? Through technology! Find out how technology can make a difference in our article, where we uncover 5 practical tips for strategies to minimize shrinkage, boost operational efficiency, and protect your bottom line.\n\n#Shrinkage #Theft #Efficiency #ConsumerExperience", "total_likes": 46}], "follower_count": 1046483, "acquisitions": null, "exit_data": null, "extra": null, "funding_data": [], "categories": null, "customer_list": null}
