{"linkedin_internal_id": "1009", "description": "At IBM, we do more than work. We create. We create as technologists, developers, and engineers. We create with our partners. We create with our competitors. If you're searching for ways to make the world work better through technology and infrastructure, software and consulting, then we want to work with you.\n\nWe're here to help every creator turn their \"what if\" into what is. Let's create something that will change everything.", "website": "http://www.ibm.com", "industry": "IT Services and IT Consulting", "company_size": [10001, null], "company_size_on_linkedin": 316468, "hq": {"country": "US", "city": "Armonk, New York", "postal_code": "10504", "line_1": "International Business Machines Corp.", "is_hq": true, "state": "NY"}, "company_type": "PUBLIC_COMPANY", "founded_year": null, "specialities": ["Cloud", "Mobile", "Cognitive", "Security", "Research", "Watson", "Analytics", "Consulting", "Commerce", "Experience Design", "Internet of Things", "Technology support", "Industry solutions", "Systems services", "Resiliency services", "Financing", "IT infrastructure"], "locations": [{"country": "US", "city": "Armonk, New York", "postal_code": "10504", "line_1": "International Business Machines Corp.", "is_hq": true, "state": "NY"}, {"country": "US", "city": "New York", "postal_code": "10022", "line_1": "590 Madison Ave", "is_hq": true, "state": "NY"}, {"country": "ZA", "city": "Sandton", "postal_code": "2196", "line_1": "90 Grayston Dr", "is_hq": true, "state": "Gauteng"}, {"country": "UY", "city": "Montevideo", "postal_code": "11000", "line_1": "Plaza Independencia 721", "is_hq": true, "state": null}, {"country": "TH", "city": "Phaya Thai", "postal_code": "10400", "line_1": "388 Phahon Yothin Road", "is_hq": true, "state": "Bangkok City"}, {"country": "ID", "city": "Jakarta Barat", "postal_code": "11330", "line_1": "Jalan Prof. Dr. Latumenten", "is_hq": true, "state": "Jakarta"}, {"country": "US", "city": "Philadelphia", "postal_code": "19103", "line_1": "30 S 17th St", "is_hq": true, "state": "PA"}, {"country": "AU", "city": "Melbourne", "postal_code": "3006", "line_1": "60 City Rd", "is_hq": true, "state": "VIC"}, {"country": "CZ", "city": "Prague", "postal_code": "148 00", "line_1": "V Parku 2294/4", "is_hq": true, "state": "Prague"}, {"country": "SG", "city": "Singapore", "postal_code": "486048", "line_1": "9 Changi Business Park Central 1", "is_hq": true, "state": "Singapore"}, {"country": "IT", "city": "Rome", "postal_code": "00144", "line_1": "Via Sciangai", "is_hq": true, "state": "Laz."}, {"country": "DE", "city": "Berlin", "postal_code": "12277", "line_1": "Nahmitzer Damm 12", "is_hq": true, "state": "BE"}, {"country": "US", "city": "Tampa", "postal_code": "33607", "line_1": "3031 N Rocky Point Dr W", "is_hq": true, "state": "FL"}, {"country": "MY", "city": "Petaling Jaya", "postal_code": "47800", "line_1": "First Avenue", "is_hq": true, "state": "Selangor"}, {"country": "FI", "city": "Helsinki", "postal_code": "00330", "line_1": "Laajalahdentie 23", "is_hq": true, "state": "Southern Finland"}, {"country": "CO", "city": "Bogota", "postal_code": "111111", "line_1": "Carrera 53 100-25", "is_hq": true, "state": "Bogota, D.C."}, {"country": "RU", "city": "Moscow", "postal_code": "123112", "line_1": "Presnenskaya naberezhnaya 10", "is_hq": true, "state": "Central Federal District"}, {"country": "AE", "city": "Dubai", "postal_code": null, "line_1": "3 Road", "is_hq": true, "state": "Dubai"}, {"country": "US", "city": "Chicago", "postal_code": "60606", "line_1": "71 S Wacker Dr", "is_hq": true, "state": "IL"}, {"country": "FR", "city": "Paris", "postal_code": "75012", "line_1": "50 Rue de Picpus", "is_hq": true, "state": "IdF"}, {"country": "SK", "city": "Bratislava", "postal_code": "821 09", "line_1": "Mlynske nivy 16688/49", "is_hq": true, "state": "Bratislava"}, {"country": "KW", "city": "Kuwait City", "postal_code": null, "line_1": "Shuhada'A Street", "is_hq": true, "state": "Kuwait City"}, {"country": "IN", "city": "Delhi", "postal_code": "110070", "line_1": "Vasant Kunj Road", "is_hq": true, "state": "Delhi"}, {"country": "BR", "city": "Rio de Janeiro", "postal_code": "22290-240", "line_1": "Avenida Pasteur, 138", "is_hq": true, "state": "RJ"}, {"country": "GR", "city": "Chalandri", "postal_code": "152 32", "line_1": "284 Leoforos Kifisias", "is_hq": true, "state": "Attica"}, {"country": "US", "city": "Huntsville", "postal_code": "35824", "line_1": "14212 Cochran Rd SW", "is_hq": true, "state": "AL"}, {"country": "MX", "city": "El Salto", "postal_code": "45680", "line_1": "Carretera al Castillo", "is_hq": true, "state": "JAL"}, {"country": "ES", "city": "Madrid", "postal_code": "28002", "line_1": "Calle de Corazon de Maria, 44", "is_hq": true, "state": "Community of Madrid"}, {"country": "CZ", "city": "Brno", "postal_code": "612 00", "line_1": "Technicka 2995/21", "is_hq": true, "state": "South Moravia"}, {"country": "US", "city": "Southbury", "postal_code": "06488", "line_1": "150 Kettletown Rd", "is_hq": true, "state": "CT"}, {"country": "AU", "city": "Sydney", "postal_code": "2065", "line_1": "601 Pacific Hwy", "is_hq": true, "state": "NSW"}, {"country": "US", "city": "San Francisco", "postal_code": "94105", "line_1": "505 Howard St", "is_hq": true, "state": "CA"}, {"country": "US", "city": "Washington", "postal_code": "20005", "line_1": "600 14th St NW", "is_hq": true, "state": "DC"}, {"country": "US", "city": "Smyrna", "postal_code": "30082", "line_1": "7100 Highlands Pkwy SE", "is_hq": true, "state": "GA"}, {"country": "US", "city": "Dallas", "postal_code": "75215", "line_1": "1000 Belleview St", "is_hq": true, "state": "TX"}, {"country": "US", "city": "Durham", "postal_code": "27709", "line_1": "3039 E Cornwallis Rd", "is_hq": true, "state": "NC"}, {"country": "AR", "city": "Martinez", "postal_code": "1640", "line_1": "Avenida Hipolito Yrigoyen 2149", "is_hq": true, "state": "Buenos Aires"}, {"country": "RO", "city": "Bucharest", "postal_code": null, "line_1": "Soseaua Bucuresti-Ploiesti 1A", "is_hq": true, "state": "Bucharest"}, {"country": "BR", "city": "Hortolandia", "postal_code": "13186-624", "line_1": "Rodovia Jorn. Francisco Aguirre Proenca", "is_hq": true, "state": "SP"}, {"country": "IN", "city": "Noida", "postal_code": "201307", "line_1": "B-19", "is_hq": true, "state": "Uttar Pradesh"}, {"country": "EG", "city": "Sixth of October", "postal_code": null, "line_1": "Cairo Alexandria Desert Road", "is_hq": true, "state": "Al Jizah"}], "name": "IBM", "tagline": null, "universal_name_id": "ibm", "profile_pic_url": "https://s3.us-west-000.backblazeb2.com/proxycurl/company/ibm/profile?X-Amz-Algorithm=AWS4-HMAC-SHA256&X-Amz-Credential=0004d7f56a0400b0000000001%2F20241120%2Fus-west-000%2Fs3%2Faws4_request&X-Amz-Date=20241120T045012Z&X-Amz-Expires=3600&X-Amz-SignedHeaders=host&X-Amz-Signature=75aa3e4a539163d3482e80a5251b0f9812e3c581d26f6f16541d976b911e910b", "background_cover_image_url": "https://s3.us-west-000.backblazeb2.com/proxycurl/company/ibm/cover?X-Amz-Algorithm=AWS4-HMAC-SHA256&X-Amz-Credential=0004d7f56a0400b0000000001%2F20241120%2Fus-west-000%2Fs3%2Faws4_request&X-Amz-Date=20241120T045012Z&X-Amz-Expires=3600&X-Amz-SignedHeaders=host&X-Amz-Signature=05007dfd414e829dcf0d4e45b686a1690af06ae9da6013971a641733cddfc214", "search_id": "1009", "similar_companies": [{"name": "Deloitte", "link": "https://www.linkedin.com/company/deloitte/", "industry": "Business Consulting and Services", "location": null}, {"name": "Google", "link": "https://www.linkedin.com/company/google/", "industry": "Software Development", "location": null}, {"name": "Microsoft", "link": "https://www.linkedin.com/company/microsoft/", "industry": "Software Development", "location": null}, {"name": "Accenture", "link": "https://www.linkedin.com/company/accenture/", "industry": "Business Consulting and Services", "location": null}, {"name": "Amazon", "link": "https://www.linkedin.com/company/amazon/", "industry": "Software Development", "location": null}, {"name": "Tata Consultancy Services", "link": "https://www.linkedin.com/company/tata-consultancy-services/", "industry": "IT Services and IT Consulting", "location": null}, {"name": "Infosys", "link": "https://www.linkedin.com/company/infosys/", "industry": "IT Services and IT Consulting", "location": null}, {"name": "Cognizant", "link": "https://www.linkedin.com/company/cognizant/", "industry": "IT Services and IT Consulting", "location": null}, {"name": "Wipro", "link": "https://www.linkedin.com/company/wipro/", "industry": "IT Services and IT Consulting", "location": null}, {"name": "Oracle", "link": "https://www.linkedin.com/company/oracle/", "industry": "IT Services and IT Consulting", "location": null}, {"name": "EY", "link": "https://www.linkedin.com/company/ernstandyoung/", "industry": "IT Services and IT Consulting", "location": null}, {"name": "Capgemini", "link": "https://www.linkedin.com/company/capgemini/", "industry": "IT Services and IT Consulting", "location": null}, {"name": "Apple", "link": "https://www.linkedin.com/company/apple/", "industry": "Computers and Electronics Manufacturing", "location": null}, {"name": "Cisco", "link": "https://www.linkedin.com/company/cisco/", "industry": "Software Development", "location": null}, {"name": "Tech Mahindra", "link": "https://www.linkedin.com/company/tech-mahindra/", "industry": "IT Services and IT Consulting", "location": null}, {"name": "Meta", "link": "https://www.linkedin.com/company/meta/", "industry": "Software Development", "location": null}, {"name": "HCLTech", "link": "https://www.linkedin.com/company/hcltech/", "industry": "IT Services and IT Consulting", "location": null}, {"name": "PwC", "link": "https://www.linkedin.com/company/pwc/", "industry": "Professional Services", "location": null}, {"name": "Netflix", "link": "https://www.linkedin.com/company/netflix/", "industry": "Entertainment Providers", "location": null}, {"name": "JPMorganChase", "link": "https://www.linkedin.com/company/jpmorganchase/", "industry": "Financial Services", "location": null}], "affiliated_companies": [{"name": "IBM Data, AI & Automation", "link": "https://www.linkedin.com/showcase/ibmdata/", "industry": "IT Services and IT Consulting", "location": null}, {"name": "StepZen, an IBM Company", "link": "https://www.linkedin.com/company/stepzen/", "industry": "Software Development", "location": null}, {"name": "Sentaca, an IBM Company", "link": "https://www.linkedin.com/company/sentaca/", "industry": "Telecommunications", "location": null}, {"name": "NS1, an IBM Company", "link": "https://www.linkedin.com/company/ns1/", "industry": "Technology, Information and Internet", "location": null}, {"name": "McD Tech Labs", "link": "https://www.linkedin.com/company/mcd-tech-labs/", "industry": "IT Services and IT Consulting", "location": null}, {"name": "Envizi", "link": "https://www.linkedin.com/company/envizi/", "industry": "Software Development", "location": null}, {"name": "EZSource", "link": "https://www.linkedin.com/company/ezlegacy/", "industry": "Software Development", "location": null}, {"name": "7Summits, an IBM Company", "link": "https://www.linkedin.com/company/7summits/", "industry": "IT Services and IT Consulting", "location": null}, {"name": "Phytel, An IBM Company", "link": "https://www.linkedin.com/company/phytel/", "industry": "Hospitals and Health Care", "location": null}, {"name": "IBM Developer", "link": "https://www.linkedin.com/showcase/ibmdeveloper/", "industry": "IT Services and IT Consulting", "location": null}, {"name": "Polar Security (An IBM Company)", "link": "https://www.linkedin.com/company/polarsecurity/", "industry": "Computer and Network Security", "location": null}, {"name": "IBM Alumni", "link": "https://www.linkedin.com/showcase/ibmalumni/", "industry": "IT Services and IT Consulting", "location": null}, {"name": "Omnio (part of IBM)", "link": "https://www.linkedin.com/company/omnio/", "industry": "IT Services and IT Consulting", "location": null}, {"name": "IBM iX", "link": "https://www.linkedin.com/company/ibmix/", "industry": "IT Services and IT Consulting", "location": null}, {"name": "Expertus, an IBM Company", "link": "https://www.linkedin.com/company/expertus-an-ibm-company/", "industry": "IT Services and IT Consulting", "location": null}, {"name": "StrongLoop, an IBM company", "link": "https://www.linkedin.com/company/strongloop-inc-/", "industry": "Software Development", "location": null}, {"name": "Star Analytics (Acquired by IBM)", "link": "https://www.linkedin.com/company/star-analytics/", "industry": "Software Development", "location": null}, {"name": "Texas Memory Systems, an IBM Company", "link": "https://www.linkedin.com/company/texas-memory-systems-an-ibm-company/", "industry": "Computer Hardware Manufacturing", "location": null}, {"name": "Databand.ai", "link": "https://www.linkedin.com/company/databand-ai/", "industry": "IT Services and IT Consulting", "location": null}, {"name": "Waeg, an IBM Company", "link": "https://www.linkedin.com/company/waeg/", "industry": "IT Services and IT Consulting", "location": null}, {"name": "Ahana, an IBM company", "link": "https://www.linkedin.com/company/ahana-io/", "industry": "Software Development", "location": null}, {"name": "IBM Consulting", "link": "https://www.linkedin.com/showcase/ibmconsulting/", "industry": "IT Services and IT Consulting", "location": null}, {"name": "IBM Hybrid Cloud and Infrastructure", "link": "https://www.linkedin.com/showcase/ibm-cloud/", "industry": "IT Services and IT Consulting", "location": null}, {"name": "DevOps Automation", "link": "https://www.linkedin.com/company/devopsautomation/", "industry": "Software Development", "location": null}, {"name": "IBM Security", "link": "https://www.linkedin.com/showcase/ibm-security/", "industry": "Computer and Network Security", "location": null}, {"name": "IBM Z IntelliMagic", "link": "https://www.linkedin.com/company/intellimagic/", "industry": "Software Development", "location": null}, {"name": "IBM Partner Plus", "link": "https://www.linkedin.com/showcase/ibm-partner-plus/", "industry": "Information Technology & Services", "location": null}, {"name": "Modern Systems: An Advanced Company", "link": "https://www.linkedin.com/company/modernsystems/", "industry": "Software Development", "location": null}, {"name": "Cloudigo an IBM Company", "link": "https://www.linkedin.com/company/cloudigo/", "industry": "Software Development", "location": null}, {"name": "Manta, an IBM Company", "link": "https://www.linkedin.com/company/getmanta/", "industry": "IT Services and IT Consulting", "location": null}, {"name": "BoxBoat Technologies (acquired by IBM)", "link": "https://www.linkedin.com/company/boxboat/", "industry": "Software Development", "location": null}, {"name": "Worklight (acquired by IBM)", "link": "https://www.linkedin.com/company/worklight/", "industry": "Software Development", "location": null}, {"name": "SoftLayer, an IBM Company", "link": "https://www.linkedin.com/company/softlayer-technologies-inc-/", "industry": "IT Services and IT Consulting", "location": null}, {"name": "Bluewolf, an IBM Company", "link": "https://www.linkedin.com/company/bluewolf-an-ibm-company/", "industry": "IT Services and IT Consulting", "location": null}, {"name": "IBM watsonx", "link": "https://www.linkedin.com/showcase/ibm-watsonx/", "industry": "IT Services and IT Consulting", "location": null}, {"name": "IBM Turbonomic", "link": "https://www.linkedin.com/company/turbonomic/", "industry": "Software Development", "location": null}, {"name": "Explorys, an IBM Company", "link": "https://www.linkedin.com/company/explorys-inc-/", "industry": "Software Development", "location": null}, {"name": "Diligent Technologies, an IBM company", "link": "https://www.linkedin.com/company/diligent-technologies-an-ibm-company/", "industry": "Software Development", "location": null}, {"name": "Taos, an IBM Company", "link": "https://www.linkedin.com/company/taos/", "industry": "IT Services and IT Consulting", "location": null}, {"name": "Sanovi, An IBM Company", "link": "https://www.linkedin.com/company/sanovi-technologies/", "industry": "Software Development", "location": null}, {"name": "IBM Research", "link": "https://www.linkedin.com/showcase/ibm-research/", "industry": "Research Services", "location": null}, {"name": "IBM Quantum", "link": "https://www.linkedin.com/showcase/ibm-quantum/", "industry": "IT Services and IT Consulting", "location": null}, {"name": "ReaQta, an IBM Company", "link": "https://www.linkedin.com/company/reaqta/", "industry": "Computer and Network Security", "location": null}, {"name": "IBM Institute for Business Value", "link": "https://www.linkedin.com/showcase/ibm-institute-for-business-value/", "industry": "Think Tanks", "location": null}, {"name": "WDG Automation \u23d0 An IBM Company", "link": "https://www.linkedin.com/company/wdgautomation/", "industry": "IT Services and IT Consulting", "location": null}, {"name": "Spanugo", "link": "https://www.linkedin.com/company/spanugo/", "industry": "Computer and Network Security", "location": null}, {"name": "Accanto", "link": "https://www.linkedin.com/company/accanto-systems/", "industry": "Software Development", "location": null}, {"name": "IBM Industry Insider", "link": "https://www.linkedin.com/showcase/ibm-industry-insider/", "industry": "Technology, Information and Internet", "location": null}, {"name": "myInvenio", "link": "https://www.linkedin.com/company/ibm-process-mining/", "industry": "Software Development", "location": null}, {"name": "Randori, an IBM Company", "link": "https://www.linkedin.com/company/randorisecurity/", "industry": "Computer and Network Security", "location": null}, {"name": "Lombardi Software (Acquired by IBM)", "link": "https://www.linkedin.com/company/lombardi-software/", "industry": "Software Development", "location": null}, {"name": "Agyla.Cloud", "link": "https://www.linkedin.com/company/agylacloud/", "industry": "IT Services and IT Consulting", "location": null}, {"name": "Simpler Consulting, an IBM Company", "link": "https://www.linkedin.com/company/simpler-consulting/", "industry": "Business Consulting and Services", "location": null}, {"name": "SXiQ", "link": "https://www.linkedin.com/company/sxiq/", "industry": "Information Technology & Services", "location": null}, {"name": "The Weather Company", "link": "https://www.linkedin.com/company/weather-company/", "industry": "IT Services and IT Consulting", "location": null}, {"name": "Gravitant, an IBM company", "link": "https://www.linkedin.com/company/gravitant/", "industry": "IT Services and IT Consulting", "location": null}, {"name": "IBM ModernSystems", "link": "https://www.linkedin.com/company/ibmmodernsystems/", "industry": "IT Services and IT Consulting", "location": null}, {"name": "IBM SevOne", "link": "https://www.linkedin.com/company/sevone-inc/", "industry": "Computer Networking Products", "location": null}, {"name": "IBM Instana", "link": "https://www.linkedin.com/company/instana/", "industry": "Software Development", "location": null}], "updates": [{"article_link": "https://www.linkedin.com/posts/ibm_ibm-granite-30-now-available-activity-7254084044240384001-S-VS", "image": null, "posted_on": {"day": 24, "month": 10, "year": 2024}, "text": "Say hello to IBM Granite 3.0 \ud83d\udc4b\n\nOpen-source, high performing, and built for responsible #AI.\n\nOur new enterprise-grade language models are available now under an Apache 2.0 license on Hugging Face and watsonx\u2024ai. Start building today: https://ibm.biz/BdavpB", "total_likes": 2656}, {"article_link": "https://www.linkedin.com/posts/ibm_genai-watsonx-ai-activity-7262826464218091520-s6zX", "image": "https://media.licdn.com/dms/image/v2/D5610AQFuesQlxB2eXw/image-shrink_1280/image-shrink_1280/0/1731592760230?e=1732226400&v=beta&t=dplOH5X7IATtK7re61OwPKmDQsYRXr9FPaxkwAkE83E", "posted_on": {"day": 14, "month": 11, "year": 2024}, "text": "Get ready for a knockout experience. \ud83d\udc4a We're teaming up with UFC to revolutionize the fan experience with #genAI.\n\nUFC Insights Engine built with #watsonx will harness the power of IBM data and AI technologies \u2013 including our family of Granite foundation models \u2013 to bring millions of global fans closer to the action.\n\nLearn more about the partnership and how we\u2019re bringing #AI to the Octagon: https://ibm.co/3CDzMzd", "total_likes": 2915}, {"article_link": "https://www.linkedin.com/posts/ibm_ai-activity-7262915672102363138-v7SO", "image": null, "posted_on": {"day": 14, "month": 11, "year": 2024}, "text": "Can #AI help you find the perfect running shoe for half marathon training? \ud83d\udc5f\n\nMeet Briana Frank, an IBMer who's using AI to enhance her love of running. This year at IBM TechXchange, Briana shared how she uses IBM Granite foundation models, InstructLab, and her own personalized running data to train an AI model that recommends her the ideal shoe to use for her training regiment.\n\nWatch her story and discover the power of personalized technology.", "total_likes": 63}, {"article_link": "https://www.linkedin.com/posts/ibm_ibmconsulting-hrtransformation-activity-7261935914543652864-E0Il", "image": "https://media.licdn.com/dms/image/v2/D5610AQHAE-DE1wXtgw/image-shrink_1280/image-shrink_1280/0/1731380430756?e=1732226400&v=beta&t=csnxJVmpLowrbMCv7qEEeUQU_JdZ1CjGEh16sdNLVzw", "posted_on": {"day": 12, "month": 11, "year": 2024}, "text": "Singapore\u2019s National University Health System (NUHS) transformed its HR platform by deploying the cloud-based SAP SuccessFactors HR platform with support from IBM Consulting and NUHS' Business Partner Synapxe, delivering more agile and responsive HR services.\n\nNUHS completed the complex transformation to a cloud-based HR platform in just 10 months, making NUHS Singapore\u2019s first healthcare cluster to provide a cloud-based HR solution with mobile self-service capabilities.\ud83d\udcf1\n\nThe project enabled NUHS to increase operational efficiencies, enhance HR productivity, provide a better employee user experience, and deliver time and cost savings! \n\nRead the full case study: https://ibm.co/3YEcLDM\n\n#IBMConsulting #HRtransformation", "total_likes": 29}, {"article_link": "https://www.linkedin.com/posts/ibm_ibmpartner-ibmpartnerplus-ferrari-activity-7261596101328150528-Jme5", "image": "https://media.licdn.com/dms/image/v2/D5610AQEoB-uF06Fzew/image-shrink_1280/image-shrink_1280/0/1731299419018?e=1732226400&v=beta&t=mKmqyvnfYuaOYIDJEqgsQpis2ILsT1qFAir4hhGcSuc", "posted_on": {"day": 11, "month": 11, "year": 2024}, "text": "\ud83d\uddde Hot off the press IBM APAC Partner News!! \n\nWelcome to new IBM Partners in APAC. Explore the IBM Partner Plus onboarding guide. Accelerate your time to market by tapping into competitive incentives, insider access and enhanced support. It houses content about technology solutions, resources and incentives throughout the entire journey\u2014from Partner Portal enablement to go-to-market support\n\n\ud83d\udccd Learn more : https://ibm.co/40GMo2B\n\n\n\u2705 APAC #IBMPartner News & Updates : \n\n1\ufe0f\u20e3  IBM Selected as Official Fan Engagement and Data Analytics Partner for Scuderia Ferrari HP. IBM and Scuderia Ferrari HP will develop a fully reimagined mobile app to be unveiled during the 2025 season. This includes applying IBM's technology and consulting expertise to analyze and transform Ferrari's massive volume and variety of data : https://ibm.co/3CnLnlZ \n\n2\ufe0f\u20e3  Move to Digital Engineering with Engineering Lifecycle Management Partner Marketing Kit is now available in MyDM. Reach out to customer via this Prospecting Digital Campaign to generate new leads : https://ibm.co/40GoTGZ \n\n3\ufe0f\u20e3 Storage Fast Backup & Recovery: Ransomware Protection - IBM Storage by Synnex Metrodata. Discover how IBM Smart Storage\u2019s anti-ransomware feature can protect your critical data from evolving threats: [ in Bahasa ] : https://ibm.co/40DcRhH  \n\n4\ufe0f\u20e3 Transforming the technology landscape with Infosys Finacle and IBM. how IBM Z and LinuxOne along with Finacle Digital Banking Solution are helping banks transform their technology landscape : https://ibm.co/40BELdS \n\n5\ufe0f\u20e3 IBM Apptio TargetProcess Marketing Kit now available. Leverage campaign tactics to promote and drive awareness for IBM Apptio TargetProcess : https://ibm.co/4fmL6OI    \n\n \n\u23f0  IBM Partner Plus Awards 2025 deadline to submit is fast approaching at November 15. Showcase your outstanding projects : https://ibm.co/4fxM1vK \n\n#IBMPartnerPlus #Ferrari #IBMApptio", "total_likes": 48}, {"article_link": "https://www.linkedin.com/posts/ibm_ai-in-action-2024-edition-27-ai-in-action-activity-7262509594843787264-C2pw", "image": null, "posted_on": {"day": 13, "month": 11, "year": 2024}, "text": "AI in Action | 2024 Edition 27: AI in Action 2024 Report\n\nAre you an AI Leader? Discover insights and takeaways on how to become\u2013and remain\u2013an AI Leader in our recent report.\n\nRead now and subscribe  \u2935", "total_likes": 2226}], "follower_count": 17565922, "acquisitions": null, "exit_data": null, "extra": null, "funding_data": [], "categories": null, "customer_list": null}
