{"linkedin_internal_id": "1283", "description": "Infosys is a global leader in next-generation digital services and consulting. We enable clients in more than 50 countries to navigate their digital transformation. With over three decades of experience in managing the systems and workings of global enterprises, we expertly steer our clients through their digital journey. We do it by enabling the enterprise with an AI-powered core that helps prioritize the execution of change. We also empower the business with agile digital at scale to deliver unprecedented levels of performance and customer delight. Our always-on learning agenda drives their continuous improvement through building and transferring digital skills, expertise, and ideas from our innovation ecosystem.\n\nVisit www.infosys.com to see how Infosys (NYSE: INFY) can help your enterprise navigate your next.", "website": "https://www.infosys.com", "industry": "IT Services and IT Consulting", "company_size": [10001, null], "company_size_on_linkedin": 320308, "hq": {"country": "IN", "city": "Bangalore", "postal_code": "560100", "line_1": "Infosys Limited", "is_hq": true, "state": "Karnataka"}, "company_type": "PUBLIC_COMPANY", "founded_year": 1981, "specialities": ["IT Solutions and Services", "Consulting", "Business Process Outsourcing", "Products and Platforms", "Engineering Services", "Cloud Services", "Artificial Intelligence", "Digital", "Big Data"], "locations": [{"country": "IN", "city": "Bangalore", "postal_code": "560100", "line_1": "Infosys Limited", "is_hq": true, "state": "Karnataka"}, {"country": "CA", "city": "Calgary", "postal_code": "T2P 3Y7", "line_1": "150 6th Avenue SW Suite 5100", "is_hq": false, "state": "AB \u200b"}, {"country": "CA", "city": "Montreal QC Canada H3B 4W5", "postal_code": null, "line_1": "1000 de la Gauchetiere Street West Suite 2400", "is_hq": false, "state": null}, {"country": "CA", "city": "Toronto Ontario", "postal_code": "M2N 6L7", "line_1": "5140 Yonge Street Suite 1400", "is_hq": false, "state": null}, {"country": "MX", "city": "Mexico", "postal_code": "03940", "line_1": "Citi Center Building Avenida Insurgentes Sur No. 1602, 12th Floor, Colonia Cr\u00e9dito Constructor", "is_hq": false, "state": "Distrito Federal Mexico CP"}, {"country": "US", "city": "Suite 700 Atlanta", "postal_code": "30339", "line_1": "Cumberland Center IV 3225 Cumberland Blvd SE", "is_hq": false, "state": "GA"}, {"country": "US", "city": "Bellevue", "postal_code": "98008", "line_1": "3326 160th Avenue SE, Suite 300,", "is_hq": false, "state": "WA"}, {"country": "US", "city": "Bellevue", "postal_code": "98005", "line_1": "11820 Northup Way, Suite E300", "is_hq": false, "state": "WA"}, {"country": "US", "city": "Bentonville", "postal_code": "72712", "line_1": "2700 SE \u2018S\u2019 Street, Suite 200", "is_hq": false, "state": "AR"}, {"country": "US", "city": "Hartford", "postal_code": "06103", "line_1": "225 Asylum Street, 11th Floor", "is_hq": false, "state": "Connecticut"}, {"country": "US", "city": "Houston", "postal_code": "77072", "line_1": "6002 Rogerdale, Suite 550", "is_hq": false, "state": "TX"}, {"country": "US", "city": "Indianapolis", "postal_code": "46282", "line_1": "One American Square Suite# 2200", "is_hq": false, "state": "IN"}, {"country": "US", "city": "Suite # 575", "postal_code": "60532", "line_1": "2300 Cabot Drive", "is_hq": false, "state": "Lisle, IL"}, {"country": "US", "city": "New York", "postal_code": "10007", "line_1": "One World Trade Center, Suite A, 79th floor, 285 Fulton St", "is_hq": false, "state": "NY"}, {"country": "US", "city": "Phoenix", "postal_code": "85029", "line_1": "10835 N 25th Avenue Suite 300", "is_hq": false, "state": "AZ"}, {"country": "US", "city": "Providence", "postal_code": "02902", "line_1": "75 Fountain Street Suite 110", "is_hq": false, "state": "RI"}, {"country": "US", "city": "Quincy", "postal_code": "02169", "line_1": "Two Adams Place Suite 125", "is_hq": false, "state": "MA"}, {"country": "US", "city": "Raleigh", "postal_code": "27617", "line_1": "7751 Brier Creek Pkwy Suite # 400", "is_hq": false, "state": "NC"}, {"country": "US", "city": "Richardson TX 75082", "postal_code": null, "line_1": "2400 N Glenville Dr Suite C150", "is_hq": false, "state": null}, {"country": "US", "city": "San Francisco", "postal_code": "94105", "line_1": "555 Mission St. Suite 1950", "is_hq": false, "state": "CA"}, {"country": "BR", "city": "Rio de Janeiro", "postal_code": null, "line_1": "Infosys Tecnologia do Brasil Ltda Praia de Botafogo 228 \u2013 Sala 1201B \u2013 Botafogo-", "is_hq": false, "state": "RJ- Brazil"}, {"country": "CR", "city": "Santa Ana San Jose", "postal_code": "10901", "line_1": "Costa Rica \u2013 San Jose Building N Piso 2, Forum 2, Lindora", "is_hq": false, "state": "Costa Rica"}, {"country": "CL", "city": "Las Condes", "postal_code": null, "line_1": "Avenida Apoquindo #5950, Piso 19, Oficina 113", "is_hq": false, "state": "Santiago de Chile "}, {"country": "PE", "city": "Miraflores", "postal_code": null, "line_1": "Sucursal del Per\u00fa, Jorge Ch\u00e1vez, 154, 3rd floor", "is_hq": false, "state": "Lima, Peru"}, {"country": "AU", "city": "Brisbane", "postal_code": "4000", "line_1": "Level 18 241 Adelaide Street", "is_hq": false, "state": "QLD"}, {"country": "AU", "city": "Canberra ACT 2601", "postal_code": null, "line_1": "Level 3 Neon House 8-10 Hobart Place", "is_hq": false, "state": null}, {"country": "AU", "city": "Postal: PO Box 528 Collins Street West Melbourne VIC 8007", "postal_code": null, "line_1": "Level 5, 818 Bourke Street Docklands VIC 3008", "is_hq": false, "state": null}, {"country": "AU", "city": "Perth WA", "postal_code": "6000", "line_1": "Level 9, Citibank Building, 37 St Georges Terrace", "is_hq": false, "state": null}, {"country": "AU", "city": "NSW", "postal_code": null, "line_1": "Level 3, 100 Arthur Street, North Sydney 2060", "is_hq": false, "state": "Australia"}, {"country": "CN", "city": "Chaoyang District Beijing 100 020\u200b", "postal_code": null, "line_1": "Unit 1501,Central Tower, China Overseas Plaza No.8 GuanghuaDongli, Jianguomenwai Avenue", "is_hq": false, "state": null}, {"country": "CN", "city": "Dalian 116 023\u200b", "postal_code": null, "line_1": "10/F, Ascendas Software Park Phase 2, No. 7,Hui Xian Yuan Dalian Hi-tech Industrial Zone", "is_hq": false, "state": null}, {"country": "CN", "city": "Hangzhou 310052", "postal_code": null, "line_1": "Bldg A2, No. 301 Binxing Road Binjiang District", "is_hq": false, "state": null}, {"country": "CN", "city": "Qingdao 266 100", "postal_code": null, "line_1": "Room B3, B4, 20th floor, Building B, No. 1, Keyuanweiyi Lu, Laoshan District", "is_hq": false, "state": null}, {"country": "CN", "city": "Shanghai", "postal_code": "200241", "line_1": "No. 506, Ziyue Road, Minhang District", "is_hq": false, "state": null}, {"country": "CN", "city": "Shenzhen 518129", "postal_code": null, "line_1": "8 Floor, Shenzhou Building, Xintianxia, Longping Road, Bantian Street, Longgang District", "is_hq": false, "state": null}, {"country": "HK", "city": "Hong Kong", "postal_code": null, "line_1": "66/F, The Center 99 Queen\u2019s Road Central", "is_hq": false, "state": null}, {"country": "IN", "city": "Bengaluru\u200b 560 100", "postal_code": null, "line_1": "Electronics City, Hosur Road", "is_hq": false, "state": null}, {"country": "IN", "city": "Odisha", "postal_code": null, "line_1": "Plot No-E/4 Info City Bhubaneswar - 751 024", "is_hq": false, "state": "India"}, {"country": "IN", "city": "Chandigarh 160 101", "postal_code": null, "line_1": "Plot No. 1 Rajiv Gandhi Technology Park Kishangarh", "is_hq": false, "state": null}, {"country": "IN", "city": "Tamil Nadu \u2013 600119", "postal_code": null, "line_1": "138, Old Mahabalipuram Road, Sholinganallur, Chennai", "is_hq": false, "state": null}, {"country": "IN", "city": "Kancheepuram District \u2013 603 004", "postal_code": null, "line_1": "Plot No.TP1/1, Central Avenue Techno Park (SEZ) Mahindra World City Chengalpet", "is_hq": false, "state": null}, {"country": "IN", "city": "Gurugram - 122 018", "postal_code": null, "line_1": "Uniworld Tower B Village Tikri Sector 48", "is_hq": false, "state": null}, {"country": "IN", "city": "Hyderabad 500 032", "postal_code": null, "line_1": "Survey No. 210, Manikonda Village, Lingampally, Rangareddy (Dist.),", "is_hq": false, "state": null}, {"country": "IN", "city": "Indore Madhya Pradesh - 453 112", "postal_code": null, "line_1": "Near Super Corridor Scheme No. 151 and 169B Village - Bada Bangarda and Tigaria badshah Tehsil - Hetod", "is_hq": false, "state": null}, {"country": "IN", "city": "Dist. Jaipur \u2013 302 037 Rajasthan", "postal_code": null, "line_1": "Plot No. IT-A-001-A-1 Mahindra World City SEZ Village Kalwara Tehsil Sanganer", "is_hq": false, "state": null}, {"country": "IN", "city": "Mangaluru\u200b 575 006", "postal_code": null, "line_1": "Kuloor Ferry Road, Kottara", "is_hq": false, "state": null}, {"country": "IN", "city": "Mohali", "postal_code": "160062", "line_1": "Plot No.I-3, Sector 83-A, IT City, SAS Nagar", "is_hq": false, "state": "Punjab -"}, {"country": "IN", "city": "Mumbai - 400 021", "postal_code": null, "line_1": "85, 'C', Mittal Towers, 8th Floor Nariman Point", "is_hq": false, "state": null}, {"country": "IN", "city": "Mysuru 570 027", "postal_code": null, "line_1": "No. 350, Hebbal Electronics City Hootagalli", "is_hq": false, "state": null}, {"country": "IN", "city": "Nagpur 441 108", "postal_code": null, "line_1": "SEZ Co-Developer, Plot No. 07, Sector-17, Special Economic Zone, MIHAN,", "is_hq": false, "state": null}, {"country": "IN", "city": "Pune 411 057", "postal_code": null, "line_1": "Plot No. 1, Rajiv Gandhi Infotech Park, Phase-I, Hinjawadi", "is_hq": false, "state": null}, {"country": "IN", "city": "Thiruvananthapuram 695 583", "postal_code": null, "line_1": "Plot No. 1, Technopark Campus II, Attipra Village", "is_hq": false, "state": null}, {"country": "JP", "city": "Regus Hirokoji Garden Avenue Centre Hirokoji Garden Avenue 4-24-16 Meieki Nakamura-ku", "postal_code": null, "line_1": "Regus Hirokoji Garden Avenue Centre Hirokoji Garden Avenue 4-24-16 Meieki Nakamura-ku", "is_hq": false, "state": null}, {"country": "JP", "city": "Osaka", "postal_code": "530-0001", "line_1": "Level 18, Hilton Plaza West, 2-2-2 Umeda, Kita-ku, Osaka City,", "is_hq": false, "state": "Japan"}, {"country": "JP", "city": "Minato-ku", "postal_code": null, "line_1": "Izumi Garden Wing 1-6-3, Roppongi", "is_hq": false, "state": "Tokyo 106 0032"}, {"country": "SG", "city": "Singapore 486025", "postal_code": null, "line_1": "CBP office #05 -01/03. 1,Changi Business Park Crescent, Plaza 8, Podium A", "is_hq": false, "state": null}, {"country": "SG", "city": "Singapore 038989", "postal_code": null, "line_1": "Suntec Office Level 43 Unit 02, Suntec Tower 2, 9 Temasek Blvd", "is_hq": false, "state": null}, {"country": "NZ", "city": "Auckland 1010", "postal_code": null, "line_1": "Infosys House Level 7, 79 Queen Street", "is_hq": false, "state": null}, {"country": "NZ", "city": "Wellington", "postal_code": "6011", "line_1": "Level 15, 171 Featherston Street", "is_hq": false, "state": "New Zealand"}, {"country": "MY", "city": "Kuala Lumpur 50470", "postal_code": null, "line_1": "Level 13A -1 Mercu UEM Jalan Stesen Sentral 5, Kuala Lumpur Sentral", "is_hq": false, "state": null}, {"country": "KR", "city": "Gangnam-Gu Seoul 06178", "postal_code": null, "line_1": "401 Campus 02, 4F, Haesung 1st Bldg Teheran-Ro 504", "is_hq": false, "state": null}, {"country": "PH", "city": "Bagumbayan", "postal_code": null, "line_1": "6th Floor, Cyber One Building, 11 Eastwood Avenue, Eastwood Cyberpark", "is_hq": false, "state": "Quezon City Manila"}, {"country": "TW", "city": "14F", "postal_code": "110", "line_1": "Centre No. 1372, Shin Kong Manhattan Building", "is_hq": false, "state": "Section 5, No. 8, Xin Yi Road , Taipei"}, {"country": "BE", "city": "1000 Bruxelles", "postal_code": null, "line_1": "Regus Brussels Central Station Rue des Colonies 11", "is_hq": false, "state": null}, {"country": "DK", "city": "Kalkbraenderiloebskaj 6", "postal_code": "2100", "line_1": "Filial Af Infosys Limited, Indien C/o GTS Nordic,", "is_hq": false, "state": "Copenhagen"}, {"country": "FI", "city": "Espoo", "postal_code": null, "line_1": "Keilaranta 1, 02150", "is_hq": false, "state": "Finland"}, {"country": "FR", "city": "92 914 Paris La Defense 9", "postal_code": null, "line_1": "Tour Opus 12, 4th Floor 77 Esplanade du G\u00e9n\u00e9ral de Gaulle", "is_hq": false, "state": null}, {"country": "FR", "city": "31700 Toulouse", "postal_code": null, "line_1": "7, Avenue Didier Daurat Ground Floor, Blagnac", "is_hq": false, "state": null}, {"country": "DE", "city": "10405 Berlin", "postal_code": null, "line_1": "BACKFABRIK Saarbr\u00fccker Stra\u00dfe 36-38", "is_hq": false, "state": null}, {"country": "DE", "city": "40217 D\u00fcsseldorf", "postal_code": null, "line_1": "3rd Floor, Friedrichstra\u00dfe 56,", "is_hq": false, "state": null}, {"country": "DE", "city": "Koldestra\u00dfe 16 91052 Erlangen", "postal_code": null, "line_1": "Design Offices GmbH Zweigniederlassung Deutschland", "is_hq": false, "state": null}, {"country": "DE", "city": "60306 Frankfurt am Main", "postal_code": null, "line_1": "Opernturm, Bockenheimer Landstra\u00dfe 2-4", "is_hq": false, "state": null}, {"country": "DE", "city": "80807 M\u00fcnchen Germany", "postal_code": null, "line_1": "Design Offices Highlight Towers GmbH Zweigniederlassung Deutschland High Light Tower Mies-van-der-Rohe-Str. 8", "is_hq": false, "state": null}, {"country": "DE", "city": "Stuttgart 70567 Germany", "postal_code": null, "line_1": "Design Offices Stuttgart Tower GmbH Zweigniederlassung Deutschland Schelmenwasenstra\u00dfe 39", "is_hq": false, "state": null}, {"country": "DE", "city": "Walldorf", "postal_code": null, "line_1": "Partner Port Altrottstr. 31, 69190", "is_hq": false, "state": null}, {"country": "IE", "city": "Dublin Republic of Ireland", "postal_code": null, "line_1": "Block1, Booterstown Hall Booterstown Avenue Booterstown", "is_hq": false, "state": null}, {"country": "IT", "city": "Milano", "postal_code": null, "line_1": "Infosys Limited Regus, Via Torino 2, 20123", "is_hq": false, "state": null}, {"country": "NO", "city": "Oslo 0164", "postal_code": null, "line_1": "Regus Business Center Ibsen AS C. J. Hambrosplass 2C 1st Floor", "is_hq": false, "state": null}, {"country": "ES", "city": "Madrid", "postal_code": null, "line_1": "CUZCO IV Paseo de la Castellana 141, 8th Floor, 28046", "is_hq": false, "state": null}, {"country": "SE", "city": "Stockholm", "postal_code": null, "line_1": "Karlav\u00e4gen 108, lift 3, 9th floor. 115 26", "is_hq": false, "state": null}, {"country": "CH", "city": "Baden", "postal_code": null, "line_1": "Brown Boveri Strasse 8 5400", "is_hq": false, "state": null}, {"country": "CH", "city": "Kloten", "postal_code": null, "line_1": "Obstgartenstrasse 27 8302", "is_hq": false, "state": null}, {"country": "NL", "city": "Amsterdam", "postal_code": null, "line_1": "World Trade Center I Tower, 7th floor Strawinskylaan 1977 1077 XX", "is_hq": false, "state": null}, {"country": "GB", "city": "Edinburgh", "postal_code": "EH2 2AF", "line_1": "Regus, 9-10 St Andrew Square", "is_hq": false, "state": null}, {"country": "GB", "city": "London E14 5NP", "postal_code": null, "line_1": "14th and 15th Floor 10 Upper Bank Street Canary Wharf", "is_hq": false, "state": null}, {"country": "GB", "city": "Nottinghamshire NG15 0EB", "postal_code": null, "line_1": "Unit 7, little Oak Drive, Sherwood Business Park", "is_hq": false, "state": null}, {"country": "GB", "city": "Swindon", "postal_code": "SN5 6QR", "line_1": "Regus Windmill Hill Business Park, Whitehill Way", "is_hq": false, "state": "Wiltshire,"}, {"country": "RU", "city": "Moscow 129626", "postal_code": null, "line_1": "Kulakov lane 9 bld. 1", "is_hq": false, "state": null}, {"country": "HR", "city": "Karlovac", "postal_code": null, "line_1": "Prilaz Ve\u0107eslava Holjevca 2a, 47000", "is_hq": false, "state": "Croatia"}, {"country": "HU", "city": "Budapest", "postal_code": null, "line_1": "Infosys Limited Magyarorsz\u00e1gi Fi\u00f3ktelepe 1036", "is_hq": false, "state": "B\u00e9csi \u00fat 52. III. em. 29., Hungary"}, {"country": "LI", "city": "Vaduz", "postal_code": null, "line_1": "Infosys Limited, Bangalore, Zweigniederlassung Vaduz Zollstrasse2, 9490", "is_hq": false, "state": null}, {"country": "SK", "city": "Bratislava", "postal_code": null, "line_1": "Infosys Limited, organiza\u010dn\u00e1 zlo\u017eka Slovensko Regus - Bratislava, City Centrum Karad\u017ei\u010dova 8/A, 821 08", "is_hq": false, "state": "Slovakia"}, {"country": "AT", "city": "Vienna", "postal_code": null, "line_1": "Infosys Austria GmbH Regus Vienna Cityport 11 Simmeringer Hauptstrasse 24 A-1110,", "is_hq": false, "state": null}, {"country": "MU", "city": "Reduit", "postal_code": "", "line_1": "4th Floor, B Wing Eb\u00e8ne Cyber Towers", "is_hq": false, "state": null}, {"country": "ZA", "city": "Johannesburg", "postal_code": "2195", "line_1": "Johannesburg West Towers, 2nd Floor, Maude Street, Sandton", "is_hq": false, "state": "South Africa"}], "name": "Infosys", "tagline": "Transforming Enterprises To Become A Thriving Live Enterprise. AI-Powered. Digital Agility At Scale. Always-On Learning.", "universal_name_id": "infosys", "profile_pic_url": "https://s3.us-west-000.backblazeb2.com/proxycurl/company/infosys/profile?X-Amz-Algorithm=AWS4-HMAC-SHA256&X-Amz-Credential=0004d7f56a0400b0000000001%2F20241120%2Fus-west-000%2Fs3%2Faws4_request&X-Amz-Date=20241120T045005Z&X-Amz-Expires=3600&X-Amz-SignedHeaders=host&X-Amz-Signature=c626cc4f4827b3fe66993be7f75df8d4d6b599e1fc1c3d040c540d79ae023027", "background_cover_image_url": "https://s3.us-west-000.backblazeb2.com/proxycurl/company/infosys/cover?X-Amz-Algorithm=AWS4-HMAC-SHA256&X-Amz-Credential=0004d7f56a0400b0000000001%2F20241120%2Fus-west-000%2Fs3%2Faws4_request&X-Amz-Date=20241120T045005Z&X-Amz-Expires=3600&X-Amz-SignedHeaders=host&X-Amz-Signature=03128482b906995310b4c27170adc43db03350f292e2aac7bb9af6ffe499a463", "search_id": "1283", "similar_companies": [{"name": "Tata Consultancy Services", "link": "https://in.linkedin.com/company/tata-consultancy-services", "industry": "IT Services and IT Consulting", "location": "Mumbai, Maharashtra"}, {"name": "Wipro", "link": "https://in.linkedin.com/company/wipro", "industry": "IT Services and IT Consulting", "location": "Bangalore, Karnataka"}, {"name": "Cognizant", "link": "https://www.linkedin.com/company/cognizant", "industry": "IT Services and IT Consulting", "location": "Teaneck, New Jersey"}, {"name": "Accenture", "link": "https://ie.linkedin.com/company/accenture", "industry": "Business Consulting and Services", "location": null}, {"name": "Deloitte", "link": "https://www.linkedin.com/company/deloitte", "industry": "Business Consulting and Services", "location": null}, {"name": "Tech Mahindra", "link": "https://in.linkedin.com/company/tech-mahindra", "industry": "IT Services and IT Consulting", "location": "Pune, Maharashtra"}, {"name": "Capgemini", "link": "https://fr.linkedin.com/company/capgemini", "industry": "IT Services and IT Consulting", "location": "Paris, France"}, {"name": "IBM", "link": "https://www.linkedin.com/company/ibm", "industry": "IT Services and IT Consulting", "location": "Armonk, New York, NY"}, {"name": "HCLTech", "link": "https://in.linkedin.com/company/hcltech", "industry": "IT Services and IT Consulting", "location": "Noida, Uttar Pradesh"}, {"name": "Google", "link": "https://www.linkedin.com/company/google", "industry": "Software Development", "location": "Mountain View, CA"}], "affiliated_companies": [{"name": "Infosys Alumni", "link": "https://www.linkedin.com/showcase/infosysalumni/", "industry": "IT Services and IT Consulting", "location": null}, {"name": "Infosys Topaz", "link": "https://www.linkedin.com/showcase/infosys-topaz/", "industry": "IT Services and IT Consulting", "location": null}, {"name": "Infosys Financial Services", "link": "https://in.linkedin.com/showcase/infosys-financial-services/", "industry": "Financial Services", "location": null}, {"name": "Infosys Engineering Services", "link": "https://www.linkedin.com/showcase/infosys-engineering-services/", "industry": "Engineering Services", "location": null}, {"name": "Infosys Healthcare", "link": "https://www.linkedin.com/showcase/infosys-healthcare/", "industry": "IT Services and IT Consulting", "location": null}, {"name": "Infosys Communications, Media and Technology Practice", "link": "https://in.linkedin.com/showcase/infosys-communications-media-and-technology-practice/", "industry": "IT Services and IT Consulting", "location": "Bangalore, Karnataka"}, {"name": "Infosys InStep", "link": "https://in.linkedin.com/showcase/infosysinstep/", "industry": "IT Services and IT Consulting", "location": "Bengaluru, Karnataka"}, {"name": "Infosys Cloud Applications", "link": "https://www.linkedin.com/showcase/infosys-applications-marketing/", "industry": "Information Technology & Services", "location": null}, {"name": "Infosys Cobalt", "link": "https://www.linkedin.com/showcase/infosys-cloud-infrastructure-and-security/", "industry": "Information Technology & Services", "location": null}, {"name": "Infosys Manufacturing", "link": "https://www.linkedin.com/showcase/infosysmanufacturing/", "industry": "IT Services and IT Consulting", "location": null}, {"name": "Infosys Enterprise Application Integration and Services", "link": "https://in.linkedin.com/showcase/enterprise-application-integration-services/", "industry": "IT Services and IT Consulting", "location": "Bengaluru, Karnataka"}, {"name": "Infosys Energy Practice", "link": "https://in.linkedin.com/showcase/infosys-oil-and-gas-practice/", "industry": "Oil and Gas", "location": null}, {"name": "Infosys Application Modernization", "link": "https://www.linkedin.com/showcase/infosys-application-modernization/", "industry": "IT Services and IT Consulting", "location": null}, {"name": "Infosys Europe", "link": "https://uk.linkedin.com/showcase/infosys-europe/", "industry": "IT Services and IT Consulting", "location": "London, England"}, {"name": "Infosys Cybersecurity", "link": "https://in.linkedin.com/showcase/infosyscybersecurity/", "industry": "Information Technology & Services", "location": "Bengaluru South, Karnataka"}, {"name": "Infosys Digital Experience", "link": "https://www.linkedin.com/showcase/infosys-digital-experience/", "industry": "IT Services and IT Consulting", "location": null}, {"name": "Infosys Life Sciences", "link": "https://www.linkedin.com/showcase/infosys-life-sciences/", "industry": "IT Services and IT Consulting", "location": null}, {"name": "Infosys Insurance", "link": "https://www.linkedin.com/showcase/infosys-insurance-services/", "industry": "Information Technology & Services", "location": null}, {"name": "Infosys Digital Workplace Services", "link": "https://www.linkedin.com/showcase/infosys-digital-workplace-services/", "industry": null, "location": null}, {"name": "Infosys Confluence", "link": "https://www.linkedin.com/showcase/infosys-confluence/", "industry": "IT Services and IT Consulting", "location": null}, {"name": "Infosys Utilities", "link": "https://www.linkedin.com/showcase/infosys-utilities/", "industry": "Information Technology & Services", "location": null}, {"name": "Infosys Salesforce Services", "link": "https://www.linkedin.com/showcase/infosys-salesforce-services/", "industry": "IT Services and IT Consulting", "location": null}, {"name": "Infosys Microsoft Practice", "link": "https://www.linkedin.com/showcase/infosys-msp/", "industry": "IT Services and IT Consulting", "location": null}, {"name": "Infosys Enterprise Agile DevOps", "link": "https://www.linkedin.com/showcase/infosys-enterprise-agile-devops/", "industry": "Information Technology & Services", "location": null}, {"name": "Infosys: 4 Decades of Excellence", "link": "https://www.linkedin.com/showcase/infosys-4decades/", "industry": "IT Services and IT Consulting", "location": null}, {"name": "Infosys Travel and Hospitality", "link": "https://www.linkedin.com/showcase/infosys-travel-and-hospitality/", "industry": "IT Services and IT Consulting", "location": null}, {"name": "Infosys Helix", "link": "https://www.linkedin.com/showcase/infosys-helix/", "industry": "IT Services and IT Consulting", "location": "Phoenix, Arizona"}, {"name": "Infosys Automotive and Mobility GmbH & Co. KG", "link": "https://de.linkedin.com/showcase/infosys-automotive-and-mobility-gmbh-&-co.-kg/", "industry": "IT Services and IT Consulting", "location": "Stuttgart, Baden-W\u00fcrttemberg"}, {"name": "Infosys Communications, Media and Technology Practice", "link": "https://www.linkedin.com/showcase/-infosys-communications-media-and-technology-practice/", "industry": null, "location": null}, {"name": "Infosys NextGen Application Management Services", "link": "https://www.linkedin.com/showcase/infosys-nextgen-application-management-services/", "industry": "Information Technology & Services", "location": null}, {"name": "Infosys Sustainability Services", "link": "https://www.linkedin.com/showcase/infosys-sustainability-services/", "industry": "IT Services and IT Consulting", "location": null}, {"name": "Infosys Emerging Technology Innovations", "link": "https://www.linkedin.com/showcase/infosys-emerging-technology-innovations/", "industry": "IT Services and IT Consulting", "location": null}, {"name": "Infosys AusNZ", "link": "https://www.linkedin.com/showcase/infosys-anz/", "industry": "IT Services and IT Consulting", "location": null}, {"name": "Infosys Aster", "link": "https://www.linkedin.com/showcase/infosys-aster/", "industry": "IT Services and IT Consulting", "location": null}, {"name": "Infosys SAP Services", "link": "https://www.linkedin.com/showcase/infosys-sap-services/", "industry": "IT Services and IT Consulting", "location": null}, {"name": "Infosys Americas", "link": "https://www.linkedin.com/showcase/infosys-americas/", "industry": "IT Services and IT Consulting", "location": "Richardson, Texas"}], "updates": [{"article_link": null, "image": "https://media.licdn.com/dms/image/v2/D5610AQFxxpo1JndyXw/videocover-high/videocover-high/0/1731576852336?e=2147483647&v=beta&t=IZJAzaRouPOHqoXphA-B5-6vJYj_TffvRadCo0MRJwI", "posted_on": null, "text": "\ud83c\udfa5 Relive the excitement of day 1 at #EMEAConfluence2024! \n\nWe delved into AI's transformative potential through insightful talks by guest speakers from art, academia, and industry. \ud83c\udf10\u2728 Attendees explored new connections and immersed themselves in cutting-edge tech showcases. \n\nThe day was enriched with a cultural city tour, mask making, and concluded with the vibrant spectacle of the Venetian Carnival. \ud83c\udfad\n\nDiscover more takeaways and video summaries on our live insight snapshot page \ud83d\udc49 https://infy.com/4ew0G9D\n\n#InfosysConfluence #EnterpriseAI #AI", "total_likes": 5}, {"article_link": null, "image": "https://media.licdn.com/dms/image/v2/D5610AQG5oN6WHLNkJA/image-shrink_1280/image-shrink_1280/0/1731576602354?e=2147483647&v=beta&t=CitGM6rN-d3CE0z4kzLAgJb90KcPnvnTjmG5bbgEMj4", "posted_on": null, "text": "96% of marketing executives are using AI in at least one activity, as per Infosys Knowledge Institute research. Full report: infy.com/3Z9dL3d\n\nFor CXOs, VPs, and Directors of IT service firms, this report highlights the critical need to integrate AI strategically across marketing functions to stay competitive. As AI continues to transform marketing, understanding its full potential is crucial for driving future growth.\n\nInfosys Aster | Infosys Cobalt | Infosys Topaz | Infosys Consulting | Infosys BPM | WongDoody | Blue Acorn iCi\n\nAuthor: Jeff Mosier\n\nContributors: Anand Bangalore, Phil Benton, Kari Connor, B\u00e9atrice Daillant, Rashmi Joshi, Samad Masood, Skyler Mattson, John Premkumar, Renee Quan-Knowles, Balaji Sampath, Bruno Soeiro, David Paul Stocks, Aimee Sutton, Ian Thomas, Emily Wilhoit.\n\nAnalysis and production: Kate Bevan, Snehal Bhosale, Dylan Cosper, Pramath Kant, Ph.D., Isaac LaBauve, Pragya Rai\n\n#MarketingInnovation #AIinMarketing #DigitalLeadership #CMOInsights", "total_likes": 13}, {"article_link": null, "image": "https://media.licdn.com/dms/image/v2/D5610AQG1Y4HpVuY4GQ/image-shrink_1280/image-shrink_1280/0/1731568050266?e=2147483647&v=beta&t=Sl8okzmbAA5ithPqR462TLchlUtQLbB60yx7D_TFXPI", "posted_on": {"day": 14, "month": 11, "year": 2024}, "text": "Prevent escalations with #AI and elevate #customerexperience. Let #generativeAI revolutionize agent training. Infosys is leveraging NVIDIA RIVA and NVIDIA Blueprints with Infosys Cortex to create more realistic and personalized training scenarios, helping agents develop essential skills like emotional intelligence and conflict resolution.\nAuthored by Samit Sawal, Vishal Manchanda & Anand Santhanam, read on to know how this AI-powered approach can enhance customer satisfaction and drive business success. infy.com/4fww09x\n\n#InfosysTopaz #EnterpriseAI #telco \nInfosys Topaz NVIDIA AI", "total_likes": 24}, {"article_link": null, "image": "https://media.licdn.com/dms/image/v2/D5610AQHE0-JGbu4-HQ/image-shrink_1280/image-shrink_1280/0/1731568432675?e=2147483647&v=beta&t=hU5NdRdwFXpdQeVzKn-2M5N27nHGZQ6QJFJVp48RrQ8", "posted_on": {"day": 14, "month": 11, "year": 2024}, "text": "At day 1 of #EMEAConfluence2024, we explored the transformative world of AI! \ud83d\udca1\n\nThe day commenced with in-depth discussions during our analyst and advisor meet, setting the stage for the main event. Our impressive lineup of guest speakers from the worlds of art, academia, and industry, came together to share valuable insights into the present and future of AI. They offered pragmatic lessons in how to manage Enterprise AI transformations effectively, efficiently and responsibly.\n\nAttendees had the opportunity to engage with our innovative tech showcases, including the exciting new Formula E simulator and the groundbreaking FT Money Machine.\n\nWe concluded the with cultural experiences and a Gala Dinner, providing guests an opportunity to reflect and connect.\n\nFor insights and key takeaways from the sessions, visit our live insight snapshot page \ud83d\udc49 https://infy.com/4ew0G9D\n\n#InfosysConfluence #EnterpriseAI #AI", "total_likes": 101}, {"article_link": null, "image": "https://media.licdn.com/dms/image/v2/D5610AQFmv6aBvwegLw/image-shrink_800/image-shrink_800/0/1731508503922?e=2147483647&v=beta&t=Kdq5PvoKTOZRJiB8qK3MuuamPScm4r7tQMcN9J_BRlQ", "posted_on": {"day": 13, "month": 11, "year": 2024}, "text": "In his CEO address, Salil Parekh, Infosys CEO and MD, set the tone for the day at #EMEAConfluence2024, separating consumer generative AI from enterprise generative AI, which drives growth and productivity for business. It is here where Infosys\u2019 expertise within client industries helps make AI applicable and effective for the businesses. \n\nVisit our real time insight snapshot for key takeaways from the session \ud83d\udc49 https://infy.com/4ew0G9D\n\n#InfosysConfluence #EnterpriseAI #AI", "total_likes": 1178}, {"article_link": null, "image": "https://media.licdn.com/dms/image/v2/D5610AQFcjpkm4Ztv6g/image-shrink_1280/image-shrink_1280/0/1731498338115?e=2147483647&v=beta&t=2C3CG8D8kPX7lGxlLY4j913v6g1eJyD0-FIkQn2MPNs", "posted_on": {"day": 13, "month": 11, "year": 2024}, "text": "Infosys Knowledge Institute today unveiled a global research report titled CMO Radar 2024. The report reveals that most companies have embedded artificial intelligence (AI) in their marketing functions and highlights how CMO\u2019s AI fluency (ability to use AI to solve problems) is driving business value and increasing their influence over corporate decision-making and strategy. Read more: infy.com/3AHzxCP #InfyNews", "total_likes": 113}, {"article_link": null, "image": "https://media.licdn.com/dms/image/v2/D5610AQGlpia-B1X_ww/videocover-high/videocover-high/0/1731497416264?e=2147483647&v=beta&t=NXfw3eugyep8NaqsMUCa8eZ1OhHF0knYR1I8FPFLtXs", "posted_on": {"day": 13, "month": 11, "year": 2024}, "text": "In this digital age, leveraging AI-powered tools like Microsoft 365 Copilot can drive substantial business growth, but it requires a deep understanding to harness its capabilities truly. \n\nInfosys Copilot ReadyAssist is your one-stop solution for copilot adoption, guiding you confidently through the digital world.\n\nFind out more about this innovative solution at our upcoming event in Canary Wharf.\n\n\u27a1\ufe0fRegister here \u2013 infy.com/3ADHgSl\n\n#ReimaginingWorkplaces #CopilotReadyAssist #DigitalWorkplace #AI #Microsoft365Copilot\n\nShishank Gupta I Rohit Verma I Sumit Sahota I Rashmi Joshi I Purnima Rajta Dhillon I Karan M. I Sujeet Kumar", "total_likes": 72}, {"article_link": null, "image": "https://media.licdn.com/dms/image/v2/D5610AQFfQgY4x-zU8A/image-shrink_1280/image-shrink_1280/0/1731488557456?e=2147483647&v=beta&t=wiwV4dH_t11oVv8XKLMRDoXTjfxznIPx4jYAwgPTdW8", "posted_on": {"day": 13, "month": 11, "year": 2024}, "text": "AI-fluent CMOs are leveraging AI to enhance business value. Stay tuned for the upcoming launch to discover how!", "total_likes": 77}, {"article_link": null, "image": "https://media.licdn.com/dms/image/v2/D5610AQG4DCoa9JH9Xw/ads-video-thumbnail_720_1280/ads-video-thumbnail_720_1280/0/1731486613145?e=2147483647&v=beta&t=WMbXB7ZOB7RmPwL9RfW7NcB18viTK_Af9wwDR6gPnYA", "posted_on": {"day": 13, "month": 11, "year": 2024}, "text": "#InfosysTopaz utilized #AI to modernize a major US insurance company's legacy systems, transforming complex SQL-stored procedures into streamlined Java APIs. This strategic move cut software development effort and accelerated time to market. Explore how we drove this impactful transformation: infy.com/4foBAux\n\n#BeingAIFirst #EnterpriseAI", "total_likes": 64}, {"article_link": null, "image": "https://media.licdn.com/dms/image/v2/D5610AQGkMEyUfRh-zw/image-shrink_800/image-shrink_800/0/1731478513708?e=2147483647&v=beta&t=wQjzpvl8c4Qf5MAvw9ExLDaBzC0we5_zwMounY875Z0", "posted_on": {"day": 13, "month": 11, "year": 2024}, "text": "Imagine living in a region where the lack of water resources has forced entire communities to migrate, resulting in severe developmental stagnation. This is the reality in the tribal areas of Jhabua and Alirajpur, Madhya Pradesh.\n\nOrganizations like Shivganga Samagra Gramvikas Parishad (SSGP) are leading the charge for change, aiming to empower 1,300 villages through skill training and education.Their goal: empower 1,300 villages, through skill training and education. #InfosysFoundation joined hands with SSGP, established 900 libraries and skill training facilities, benefiting 7,000 people with entrepreneurial skills.\n\nIn a remarkable show of unity, over 15,000 villagers gathered for a rainwater harvesting event to identify their common problems, leading to the training of 210 youth who built 10 check dams. Their efforts transformed the landscape, conserving 150 crore liters of water annually and restoring hope to the community.\n\nThe once parched and struggling villages, had access to clean, fresh water. As lakes emerged, the community flourished, and the children thrived. The barren land turned into a verdure landscape, proving that with support, a sustainable future is possible.\n\n#InfosysCSR | #RuralDevelopment | #CommunityWelfare", "total_likes": 95}], "follower_count": 9533019, "acquisitions": null, "exit_data": null, "extra": null, "funding_data": [], "categories": null, "customer_list": null}
