{"linkedin_internal_id": "2709", "description": "OpenText is a world leader in Information Management, helping companies securely capture, govern and exchange information on a global scale. OpenText solves digital business challenges for customers, ranging from small and mid-sized businesses to the largest and most complex organizations in the world. For more information about OpenText (NASDAQ/TSX: OTEX), visit www.opentext.com", "website": "http://www.opentext.com", "industry": "Software Development", "company_size": [10001, null], "company_size_on_linkedin": 22021, "hq": {"country": "CA", "city": "Waterloo", "postal_code": "N2L 0A1", "line_1": "275 Frank Tompa Drive", "is_hq": true, "state": "ON"}, "company_type": "PUBLIC_COMPANY", "founded_year": null, "specialities": ["Information Management", "Enterprise Content Management (ECM)", "Content Services", "Digital Experience (DX)", "Customer Experience Management (CEM)", "Customer Communications Management (CCM)", "Information Exchange", "IoT", "Information Security", "Developers", "Partners", "LegalTech"], "locations": [{"country": "CA", "city": "Waterloo", "postal_code": "N2L 0A1", "line_1": "275 Frank Tompa Drive", "is_hq": true, "state": "ON"}, {"country": "CA", "city": "Richmond Hill", "postal_code": "L4B 4N8", "line_1": "38 Leek Crescent", "is_hq": false, "state": "Ontario"}, {"country": "GB", "city": "Reading", "postal_code": "RG6 1PU", "line_1": "420 Thames Valley Park Drive", "is_hq": false, "state": "Berkshire"}, {"country": "US", "city": "Broomfield", "postal_code": "80021", "line_1": "385 Interlocken Crescent", "is_hq": false, "state": "Colorado"}, {"country": "IN", "city": "Hyderabad", "postal_code": "500081", "line_1": "MindSpace IT Park, Hi-Tec City", "is_hq": false, "state": "Telangana "}, {"country": "PH", "city": "Makati", "postal_code": null, "line_1": "Ayala Ave", "is_hq": false, "state": "National Capital Region"}, {"country": "CA", "city": "Montreal", "postal_code": "H3C 2N6", "line_1": "75 Queen Street", "is_hq": false, "state": "QC"}, {"country": "US", "city": "Menlo Park", "postal_code": "94025", "line_1": "2440 Sand Hill Rd", "is_hq": false, "state": "California"}, {"country": "US", "city": "Alpharetta", "postal_code": "30009", "line_1": "11720 Amberpark Dr", "is_hq": false, "state": "Georgia"}, {"country": "US", "city": "Lexington", "postal_code": "40511", "line_1": "810 Bull Lea Rd", "is_hq": false, "state": "Kentucky"}, {"country": "US", "city": "Gaithersburg", "postal_code": "20878", "line_1": "9711 Washingtonian Blvd", "is_hq": false, "state": "Maryland"}, {"country": "US", "city": "Tinton Falls", "postal_code": "07712", "line_1": "100 Tormee Dr", "is_hq": false, "state": "New Jersey"}, {"country": "BR", "city": "S\u00e3o Paulo", "postal_code": null, "line_1": "Avenida Brigadeiro Faria Lima", "is_hq": false, "state": null}, {"country": "AU", "city": "North Sydney", "postal_code": "2060", "line_1": "80 Pacific Hwy", "is_hq": false, "state": "New South Wales"}, {"country": "CN", "city": "Shanghai", "postal_code": "200052", "line_1": "100 Zunyi Road", "is_hq": false, "state": null}, {"country": "IN", "city": "Bangalore", "postal_code": "560071", "line_1": "Intermediate Ring Road", "is_hq": false, "state": "Karnataka"}, {"country": "IN", "city": "Bangalore", "postal_code": "560071", "line_1": "Internal Ring Road", "is_hq": false, "state": "Karnataka "}, {"country": "IN", "city": "Hyderabad", "postal_code": "500081", "line_1": "Workafella, 1st fl Cyber Crown, Sec-II, Village, Huda Techno Enclave", "is_hq": false, "state": "Telangana"}, {"country": "JP", "city": "Tokyo ", "postal_code": "100-0005", "line_1": "1-8-3, Marunouchi, Chiyoda-ku", "is_hq": false, "state": null}, {"country": "KR", "city": "Seoul", "postal_code": "03152", "line_1": "42 Jong-ro 1-gil Jongno-gu", "is_hq": false, "state": null}, {"country": "SG", "city": "Singapore", "postal_code": "048946", "line_1": "138 Market Street", "is_hq": false, "state": null}, {"country": "DE", "city": "Grasbrunn", "postal_code": "85630", "line_1": "Werner-von-Siemens Ring 20", "is_hq": false, "state": "Bavaria"}, {"country": "FR", "city": "Paris", "postal_code": "92932 ", "line_1": "100, Esplanade du G\u00e9n\u00e9ral de Gaulle", "is_hq": false, "state": "\u00cele-de-France"}, {"country": "IT", "city": "Rome", "postal_code": "00144", "line_1": "Via Amsterdam, 125", "is_hq": false, "state": null}, {"country": "IE", "city": "Cork", "postal_code": null, "line_1": "Kinsale Road", "is_hq": false, "state": null}, {"country": "NL", "city": "Amstelveen", "postal_code": null, "line_1": "1183 AV", "is_hq": false, "state": null}, {"country": "ES", "city": "28043 Madrid", "postal_code": null, "line_1": "Calle Jose Silva 17 6\u00aaplta", "is_hq": false, "state": null}, {"country": "AE", "city": "Dubai", "postal_code": null, "line_1": "Dubai Internet City", "is_hq": false, "state": null}, {"country": "ZA", "city": "Johannesburg", "postal_code": null, "line_1": "Leslie Ave East", "is_hq": false, "state": null}], "name": "OpenText", "tagline": null, "universal_name_id": "opentext", "profile_pic_url": "https://s3.us-west-000.backblazeb2.com/proxycurl/company/opentext/profile?X-Amz-Algorithm=AWS4-HMAC-SHA256&X-Amz-Credential=0004d7f56a0400b0000000001%2F20241120%2Fus-west-000%2Fs3%2Faws4_request&X-Amz-Date=20241120T052009Z&X-Amz-Expires=3600&X-Amz-SignedHeaders=host&X-Amz-Signature=b0f11fe1af7cfe4858f68beecd461bc27a093325c3bd13a32022d4f0fcca5e66", "background_cover_image_url": "https://s3.us-west-000.backblazeb2.com/proxycurl/company/opentext/cover?X-Amz-Algorithm=AWS4-HMAC-SHA256&X-Amz-Credential=0004d7f56a0400b0000000001%2F20241120%2Fus-west-000%2Fs3%2Faws4_request&X-Amz-Date=20241120T052009Z&X-Amz-Expires=3600&X-Amz-SignedHeaders=host&X-Amz-Signature=7982dec52bffc6a8ebfcda7eb62c6d54f2641fc835df3299521aeab4b7ac76f5", "search_id": "2709", "similar_companies": [{"name": "Liaison Technologies", "link": "https://www.linkedin.com/company/liaison-technologies", "industry": "IT Services and IT Consulting", "location": null}, {"name": "Guidance Software", "link": "https://www.linkedin.com/company/guidance-software", "industry": "Computer and Network Security", "location": null}, {"name": "KineMatik", "link": "https://www.linkedin.com/company/kinematik", "industry": "IT Services and IT Consulting", "location": null}], "affiliated_companies": [{"name": "OpenText Cybersecurity", "link": "https://www.linkedin.com/showcase/opentext-cybersecurity/", "industry": "Computer and Network Security", "location": null}, {"name": "Webroot", "link": "https://www.linkedin.com/company/webroot", "industry": "Computer and Network Security", "location": "Broomfield, CO"}, {"name": "Carbonite", "link": "https://www.linkedin.com/company/carbonite", "industry": "Software Development", "location": "Boston, MA"}, {"name": "OpenText Content Cloud", "link": "https://ca.linkedin.com/showcase/opentextcontentcloud/", "industry": "Software Development", "location": "Waterloo, Ontario"}, {"name": "Hightail", "link": "https://www.linkedin.com/company/opentext-hightail", "industry": "Internet Publishing", "location": "San Mateo, California"}, {"name": "OpenText Business Network Cloud", "link": "https://ca.linkedin.com/showcase/opentextbncloud/", "industry": "IT Services and IT Consulting", "location": "Waterloo, ON"}, {"name": "OpenText IT Operations Management", "link": "https://ca.linkedin.com/showcase/opentext-it-operations-management/", "industry": "Software Development", "location": null}, {"name": "OpenText Philippines", "link": "https://www.linkedin.com/showcase/opentext-philippines/", "industry": "Information Services", "location": null}, {"name": "OpenText India", "link": "https://in.linkedin.com/showcase/opentextindia/", "industry": "Software Development", "location": null}, {"name": "OpenText Partner", "link": "https://ca.linkedin.com/showcase/opentextpartner/", "industry": "Software Development", "location": "Waterloo, Ontario"}, {"name": "OpenText DACH", "link": "https://de.linkedin.com/showcase/opentextdach/", "industry": "Software Development", "location": "Grasbrunn, M\u00fcnchen"}, {"name": "OpenText DevOps Cloud", "link": "https://www.linkedin.com/showcase/opentext-devops-cloud/", "industry": "Software Development", "location": null}, {"name": "OpenText Developers", "link": "https://ca.linkedin.com/showcase/opentext-developers/", "industry": "Software Development", "location": "Waterloo, Ontario"}, {"name": "OpenText Portfolio", "link": "https://www.linkedin.com/showcase/opentext-portfolio/", "industry": "Software Development", "location": null}, {"name": "OpenText Experience Cloud", "link": "https://ca.linkedin.com/showcase/opentextexperiencecloud/", "industry": "Software Development", "location": "Waterloo, Ontario"}, {"name": "OpenText Navigator Champions", "link": "https://ca.linkedin.com/showcase/opentext-navigator-champions/", "industry": "Information Technology & Services", "location": "Waterloo, ON"}], "updates": [], "follower_count": 428100, "acquisitions": null, "exit_data": null, "extra": null, "funding_data": [], "categories": null, "customer_list": null}
