{"linkedin_internal_id": "1090", "description": "Over the past decade we have transformed into a focused leader in health technology.\n\nAt Philips, our purpose is to improve people\u2019s health and well-being through meaningful innovation. We aim to improve 2.5 billion lives per year by 2030, including 400 million in underserved communities. \n\nWe see healthcare as a connected whole. Helping people to live healthily and prevent disease. Giving clinicians the tools they need to make a precision diagnosis and deliver personalized treatment. Aiding the patient's recovery at home in the community. All supported by a seamless flow of data.\n\nAs a technology company, we \u2013 and our brand licensees \u2013 innovate for people with one consistent belief: there\u2019s always a way to make life better.\n\n\nVisit our website: http://www.philips.com/\nFollow our social media house rules https://www.philips.com/a-w/about-philips/social-media.html", "website": "https://www.philips.com/a-w/about.html", "industry": "Hospitals and Health Care", "company_size": [10001, null], "company_size_on_linkedin": 71551, "hq": {"country": "NL", "city": "Amsterdam", "postal_code": "1096 BC", "line_1": "Amstelplein 2", "is_hq": true, "state": "Noord-Holland"}, "company_type": "PUBLIC_COMPANY", "founded_year": null, "specialities": ["Healthcare", "Medical Devices", "Health systems", "Cardiology", "Healthtech", "Oncology", "Respiratory", "Fertility, pregnancy", "Connected Care"], "locations": [{"country": "NL", "city": "Amsterdam", "postal_code": "1096 BC", "line_1": "Amstelplein 2", "is_hq": true, "state": "Noord-Holland"}, {"country": "GB", "city": "Guildford", "postal_code": "GU2 8XH", "line_1": "Guildford Business Park", "is_hq": true, "state": "Surrey"}, {"country": "GB", "city": "Cambridge", "postal_code": "CB4 0FY", "line_1": "Milton Road", "is_hq": true, "state": "England"}, {"country": "NL", "city": "Drachten", "postal_code": "9203 ZN", "line_1": "Oliemolenstraat 5", "is_hq": true, "state": "Friesland"}, {"country": "US", "city": "Stamford", "postal_code": "06905", "line_1": "1600 Summer St", "is_hq": true, "state": "CT"}, {"country": "US", "city": "Highland Heights", "postal_code": "44143", "line_1": "595 Miner Rd", "is_hq": true, "state": "OH"}, {"country": "RU", "city": "Moscow", "postal_code": "123022", "line_1": "ulitsa Sergeya Makeeva 13", "is_hq": true, "state": "Central Federal District"}, {"country": "US", "city": "San Diego", "postal_code": "92130", "line_1": "3721 Valley Centre Dr", "is_hq": true, "state": "CA"}, {"country": "US", "city": "Monroeville", "postal_code": "15146", "line_1": "1740 Highway 286", "is_hq": true, "state": "PA"}, {"country": "US", "city": "Carlsbad", "postal_code": "92011", "line_1": "2271 Cosmos Ct", "is_hq": true, "state": "CA"}, {"country": "HU", "city": "Budapest", "postal_code": "1097", "line_1": "K\u00f6nyves K\u00e1lm\u00e1n k\u00f6r\u00fat 11c", "is_hq": true, "state": null}, {"country": "GR", "city": "Chalandri", "postal_code": "152 31", "line_1": "1 Tzavella", "is_hq": true, "state": "Attica"}, {"country": "IT", "city": "Monza", "postal_code": "20900", "line_1": "Via Gaetano Casati", "is_hq": true, "state": "Lombardy"}, {"country": "US", "city": "Alpharetta", "postal_code": "30004", "line_1": "13560 Morris Rd", "is_hq": true, "state": "GA"}, {"country": "HK", "city": "Sha Tin", "postal_code": null, "line_1": "1 Science Park East Ave", "is_hq": true, "state": "Hong Kong"}, {"country": "US", "city": "Nashville", "postal_code": "37211", "line_1": "501 Metroplex Dr", "is_hq": true, "state": "TN"}, {"country": "US", "city": "Des Moines", "postal_code": "50317", "line_1": "1701 Lay St", "is_hq": true, "state": "IA"}, {"country": "US", "city": "Gainesville", "postal_code": "32608", "line_1": "3545 SW 47th Ave", "is_hq": true, "state": "FL"}, {"country": "NL", "city": "Eindhoven", "postal_code": "5656 AE", "line_1": "High Tech Campus 36", "is_hq": true, "state": "North Brabant"}, {"country": "NL", "city": "Eindhoven", "postal_code": "5656 AE", "line_1": "High Tech Campus 34", "is_hq": true, "state": "North Brabant"}, {"country": "NL", "city": "Best", "postal_code": "5684 PC", "line_1": "Veenpluis 6", "is_hq": true, "state": "North Brabant"}, {"country": "FI", "city": "Vantaa", "postal_code": "01510", "line_1": "Ayritie 4", "is_hq": true, "state": "Southern Finland"}, {"country": "AE", "city": "Al Sufouh 2", "postal_code": null, "line_1": "Dubai Knowledge Park", "is_hq": true, "state": "Dubai"}, {"country": "US", "city": "Framingham", "postal_code": "01702", "line_1": "111 Lawrence St", "is_hq": true, "state": "MA"}, {"country": "IN", "city": "Pune", "postal_code": "411018", "line_1": "101A, ICC Devi Gaurav Technology Park, Survey No 191, 195, Old Mumbai - Pune Hwy, Pimpri Colony", "is_hq": true, "state": "Maharashtra "}, {"country": "IN", "city": "Bengaluru", "postal_code": "560045", "line_1": "Manyatha Tech Park, Hebbal Outer Ring Road, Nagawara, Thanisandra", "is_hq": true, "state": "Karnataka"}, {"country": "IN", "city": "Chennai", "postal_code": null, "line_1": " Cambridge Tower, Ramanujan IT Park, Tharamani, Rajiv Gandhi", "is_hq": true, "state": "Tamil Nadu"}, {"country": "IN", "city": "Gurugram", "postal_code": "122018", "line_1": "Worldmark, Sector 65, Golf Course Extension Road,", "is_hq": true, "state": "Haryana"}], "name": "Philips", "tagline": "There's always a way to make life better. ", "universal_name_id": "philips", "profile_pic_url": "https://s3.us-west-000.backblazeb2.com/proxycurl/company/philips/profile?X-Amz-Algorithm=AWS4-HMAC-SHA256&X-Amz-Credential=0004d7f56a0400b0000000001%2F20241120%2Fus-west-000%2Fs3%2Faws4_request&X-Amz-Date=20241120T053149Z&X-Amz-Expires=3600&X-Amz-SignedHeaders=host&X-Amz-Signature=7316ad49d55c7ce6834fcaba4d592b626b2f8da4fd9c4ccf09d01cf4ef4de0b5", "background_cover_image_url": "https://s3.us-west-000.backblazeb2.com/proxycurl/company/philips/cover?X-Amz-Algorithm=AWS4-HMAC-SHA256&X-Amz-Credential=0004d7f56a0400b0000000001%2F20241120%2Fus-west-000%2Fs3%2Faws4_request&X-Amz-Date=20241120T053149Z&X-Amz-Expires=3600&X-Amz-SignedHeaders=host&X-Amz-Signature=965a397714dd6d4eea56d7f00d056b0c16f72992d4a8b966edf09f0b9ddd11a6", "search_id": "1090", "similar_companies": [{"name": "GE HealthCare", "link": "https://www.linkedin.com/company/gehealthcare/", "industry": "Hospitals and Health Care", "location": null}, {"name": "Siemens Healthineers", "link": "https://www.linkedin.com/company/siemens-healthineers/", "industry": "Hospitals and Health Care", "location": null}, {"name": "Medtronic", "link": "https://www.linkedin.com/company/medtronic/", "industry": "Medical Equipment Manufacturing", "location": null}, {"name": "Abbott", "link": "https://www.linkedin.com/company/abbott-/", "industry": "Hospitals and Health Care", "location": null}, {"name": "Johnson & Johnson", "link": "https://www.linkedin.com/company/johnson-&-johnson/", "industry": "Hospitals and Health Care", "location": null}, {"name": "Stryker", "link": "https://www.linkedin.com/company/stryker/", "industry": "Medical Equipment Manufacturing", "location": null}, {"name": "Boston Scientific", "link": "https://www.linkedin.com/company/boston-scientific/", "industry": "Medical Equipment Manufacturing", "location": null}, {"name": "Siemens", "link": "https://www.linkedin.com/company/siemens/", "industry": "Automation Machinery Manufacturing", "location": null}, {"name": "BD", "link": "https://www.linkedin.com/company/bd1/", "industry": "Medical Equipment Manufacturing", "location": null}, {"name": "Baxter International Inc.", "link": "https://www.linkedin.com/company/baxter-healthcare/", "industry": "Medical Equipment Manufacturing", "location": null}, {"name": "Roche", "link": "https://www.linkedin.com/company/roche/", "industry": "Biotechnology Research", "location": null}, {"name": "Deloitte", "link": "https://www.linkedin.com/company/deloitte/", "industry": "Business Consulting and Services", "location": null}, {"name": "Pfizer", "link": "https://www.linkedin.com/company/pfizer/", "industry": "Pharmaceutical Manufacturing", "location": null}, {"name": "Unilever", "link": "https://www.linkedin.com/company/unilever/", "industry": "Manufacturing", "location": null}, {"name": "Amazon", "link": "https://www.linkedin.com/company/amazon/", "industry": "Software Development", "location": null}, {"name": "Thermo Fisher Scientific", "link": "https://www.linkedin.com/company/thermo-fisher-scientific/", "industry": "Biotechnology Research", "location": null}, {"name": "Google", "link": "https://www.linkedin.com/company/google/", "industry": "Software Development", "location": null}, {"name": "Microsoft", "link": "https://www.linkedin.com/company/microsoft/", "industry": "Software Development", "location": null}, {"name": "Philips Lighting", "link": "https://www.linkedin.com/company/philips-lighting/", "industry": "Appliances, Electrical, and Electronics Manufacturing", "location": null}, {"name": "Procter & Gamble", "link": "https://www.linkedin.com/company/procter-and-gamble/", "industry": "Manufacturing", "location": null}], "affiliated_companies": [{"name": "Philips Remote Diagnostic Technologies", "link": "https://www.linkedin.com/company/philips-remote-diagnostic-technologies/", "industry": "Hospitals and Health Care", "location": null}, {"name": "Philips Imaging", "link": "https://www.linkedin.com/showcase/philips-imaging/", "industry": "Hospitals and Health Care", "location": null}, {"name": "Philips Capsule", "link": "https://www.linkedin.com/company/capsule-technologie/", "industry": "Hospitals and Health Care", "location": null}, {"name": "Philips Wellcentive", "link": "https://www.linkedin.com/company/wellcentive/", "industry": "Hospitals and Health Care", "location": null}, {"name": "Philips Lifeline", "link": "https://www.linkedin.com/company/philips-lifeline/", "industry": "Medical Equipment Manufacturing", "location": null}, {"name": "Volcano Corporation", "link": "https://www.linkedin.com/company/philips-volcano/", "industry": "Medical Equipment Manufacturing", "location": null}, {"name": "Philips. Innovation and you.", "link": "https://www.linkedin.com/showcase/philips-innovation-and-you/", "industry": "Hospitals and Health Care", "location": null}, {"name": "Philips Engineering Solutions", "link": "https://www.linkedin.com/company/philips-engineering-solutions/", "industry": "Appliances, Electrical, and Electronics Manufacturing", "location": null}, {"name": "Philips Foundation", "link": "https://www.linkedin.com/company/philips-foundation/", "industry": "Non-profit Organization Management", "location": null}, {"name": "Spectranetics", "link": "https://www.linkedin.com/company/spectranetics/", "industry": "Medical Device", "location": null}, {"name": "Medumo", "link": "https://www.linkedin.com/company/medumo/", "industry": "Hospitals and Health Care", "location": null}, {"name": "Intact Vascular", "link": "https://www.linkedin.com/company/intactvascular/", "industry": "Medical Equipment Manufacturing", "location": null}, {"name": "Philips Sleep & Respiratory Care", "link": "https://www.linkedin.com/showcase/philips-respiratory/", "industry": "Hospitals and Health Care", "location": null}, {"name": "BioTelemetry, Inc.", "link": "https://www.linkedin.com/company/biotelemetry-inc-/", "industry": "Biotechnology Research", "location": null}, {"name": "Invivo Corporation", "link": "https://www.linkedin.com/company/invivo-corporation/", "industry": "Medical Equipment Manufacturing", "location": null}, {"name": "Dunlee", "link": "https://www.linkedin.com/company/dunleebeyondsolutions/", "industry": "Medical Device", "location": null}, {"name": "OBMedical Company", "link": "https://www.linkedin.com/company/obmedical/", "industry": "Medical Device", "location": null}, {"name": "Cardiologs", "link": "https://www.linkedin.com/company/cardiologs/", "industry": "Software Development", "location": null}, {"name": "\u8fbd\u5b81\u9014\u4fe1\u7f51\u7edc\u79d1\u6280\u6709\u9650\u516c\u53f8", "link": "https://www.linkedin.com/company/%E8%BE%BD%E5%AE%81%E9%80%94%E4%BF%A1%E7%BD%91%E7%BB%9C%E7%A7%91%E6%8A%80%E6%9C%89%E9%99%90%E5%85%AC%E5%8F%B8/", "industry": "Broadcast Media Production and Distribution", "location": null}, {"name": "RespirTech, a Philips company", "link": "https://www.linkedin.com/company/respirtech/", "industry": "Medical Equipment Manufacturing", "location": null}, {"name": "Philips Oral Healthcare", "link": "https://www.linkedin.com/showcase/oral-healthcare/", "industry": "Wellness and Fitness Services", "location": null}], "updates": [{"article_link": "https://www.linkedin.com/posts/philips_why-should-the-healthcare-industry-care-about-activity-7249061324230410240-1PuV", "image": null, "posted_on": {"day": 8, "month": 10, "year": 2024}, "text": "Did you know that MRI scanners are the world\u2019s biggest consumer of helium? Helium allows MRI scanners to do their job, but the nonrenewable resource is in short supply. Without helium, it\u2019s harder to diagnose conditions like heart disease and cancer.\n\nLearn how Philips is making helium-free MR operations a reality \u2014 caring for people and the planet.\n\nhttps://lnkd.in/dcfHGiXy\n\n#CareMeansTheWorld  #Sustainability #Healthcare", "total_likes": 468}, {"article_link": "https://www.linkedin.com/posts/philips_technology-software-development-activity-7260328735126556672-UJpR", "image": "https://media.licdn.com/dms/image/v2/D4E10AQFRRVjpfu4srQ/image-shrink_1280/image-shrink_1280/0/1730997250026?e=1731632400&v=beta&t=bZI1z2HiUHToTi12PADDO9k4qQYvg9ZUiTPzwfcXnc8", "posted_on": {"day": 7, "month": 11, "year": 2024}, "text": "Drive engineering excellence and unlock your true developer potential. Discover how mastering professionalism, pragmatism and self-improvement can elevate your career and help you navigate the industry\u2019s unique landscape. In the latest Philips Technology blog, our tech leaders Fernando Jos\u00e9 Vieira and Rodolfo Hansen provide a toolkit so you can join us in embracing continuous learning and excellence in your craft. \nRead here for more \u27a1\ufe0f https://lnkd.in/eY7jbUjQ\n\n#Technology #Software #Development", "total_likes": 26}, {"article_link": "https://www.linkedin.com/posts/philips_cmex-and-philips-international-point-of-care-cardiac-activity-7260139037796028416-Wh9I", "image": null, "posted_on": {"day": 7, "month": 11, "year": 2024}, "text": "Unlock the power of POC cardiac diagnostics with the International Point-of-Care-Cardiac Ultrasound course held in partnership between CMEx and Philips. Join us in Chiang Mai on February 13-14, 2025, for an immersive learning experience with didactic and hands on experience to solidify your scanning skills. Reserve your spot today and elevate your skills with training from leading expert Dr Rungsarit. #POC #Cardiac #Ultrasound #CMEx\n\nRegister here: https://lnkd.in/d34SSzvU", "total_likes": 7}, {"article_link": "https://www.linkedin.com/posts/philips_well-be-visiting-university-of-malaya-on-activity-7258017488473366528-45Qp", "image": "https://media.licdn.com/dms/image/v2/D4D10AQHkKFmdylsjTg/image-shrink_1280/image-shrink_1280/0/1730446201762?e=1731632400&v=beta&t=jpCtC44UN4RXYeQRTzbjq0qzKxSytAdyJeKZUQ7roGI", "posted_on": {"day": 2, "month": 11, "year": 2024}, "text": "We\u2019ll be visiting University of Malaya on the 19th Nov, 2-3pm at Mini Theater, Azman Hashim Building. We can\u2019t wait to meet you!\n\nWe\u2019ve got an amazing line up of business sharing from Michael Mckechnie, JAPAC Zone Leader of Personal Health. Come and learn more about latest job opportunities at Philips and experience our products first hand! Just register with your career office today!\n\nUnable to make it? Find out more here: https://lnkd.in/dS9FMicN", "total_likes": 8}, {"article_link": "https://www.linkedin.com/posts/philips_ultrasound-maternalhealth-healthequity-activity-7258130693031886850-jeeY", "image": "https://media.licdn.com/dms/image/v2/D5610AQGCAYjrE0QPDQ/image-shrink_1280/image-shrink_1280/0/1730473202126?e=1731632400&v=beta&t=SeUUiq2bM7XR_kaLnXMiSA_JDwD4o79Vo4EJPWYUs9s", "posted_on": {"day": 2, "month": 11, "year": 2024}, "text": "One of the biggest challenges for some expectant mothers is the out-of-pocket costs associated with prenatal care. But community-based initiatives like March of Dimes mobile health centers can help. \n\nThese mobile clinics, equipped with Philips portable #ultrasound technology, ensure essential services reach those who need them most. \n\nLearn how the March of Dimes and Philips Foundation partnership is helping bring better care to more people in the US.\n\nhttps://lnkd.in/gmWX-pEY\n\n#MaternalHealth #HealthEquity", "total_likes": 171}, {"article_link": "https://www.linkedin.com/posts/philips_heart-health-and-cancer-improving-ultrasounds-activity-7257405988960436224-y6YY", "image": null, "posted_on": {"day": 1, "month": 11, "year": 2024}, "text": "Did you know that more than 1 in 10 cancer patients will survive cancer but die of #cardiovascular problems instead?* \n\nWhile chemotherapy and radiation treatments have gotten much better at increasing a patient\u2019s chance of survival, these same life-saving therapies can increase a cancer patient\u2019s risk of developing problems with their heart and blood vessels.\n\nThat\u2019s why we\u2019re harnessing the power of #AI in ultrasound scans to help healthcare professionals make earlier and more accurate treatment decisions to prevent heart damage.\n\n*European Society of Cardiology. (2019, November 25). Cancer patients are at higher risk of dying from heart disease and stroke [Press release].", "total_likes": 181}], "follower_count": 2536031, "acquisitions": null, "exit_data": null, "extra": null, "funding_data": [], "categories": null, "customer_list": null}
