{"linkedin_internal_id": "1116", "description": "P&G was founded more than 185 years ago as a soap and candle company. Today, we\u2019re one of the world\u2019s largest consumer goods companies and home to iconic, trusted brands, including Always\u00ae, Charmin\u00ae, Braun\u00ae, Fairy\u00ae, Febreze\u00ae, Gillette\u00ae, Head & Shoulders\u00ae, Oral B\u00ae, Pantene\u00ae, Pampers\u00ae, Tide\u00ae, and Vicks\u00ae. \n \nThe design, development, growth and success of these products\u2014and many more\u2014is thanks to the innovative and insightful minds of our people. From Day 1, you\u2019ll help make everyday life easier for our 5 billion consumers. \n \nThere is no single equation for success at P&G, because no two P&G people or careers are alike. Just as we strive to deliver a superior consumer experience, we aim to deliver a superior employee value equation as well. With our large global footprint, there are many opportunities to work with P&G in multiple locations. We offer opportunities in approximately 70 countries and continually aim to attract, reward and advance the finest people in the world. \n \nHere, we want you to get your career off to a fast start. That's why we don't have any rotational development programs or gradual ramping-up periods: you\u2019ll be able\u2014and encouraged\u2014to dive right in from Day 1. Join us and help make life better through meaningful work that makes an impact from Day 1.", "website": "http://www.pg.com", "industry": "Manufacturing", "company_size": [10001, null], "company_size_on_linkedin": 90836, "hq": {"country": "US", "city": "Cincinnati", "postal_code": "45202", "line_1": "2 P&G Plaza", "is_hq": true, "state": "Ohio"}, "company_type": "PUBLIC_COMPANY", "founded_year": null, "specialities": ["Consumer Goods", "Marketing", "Advertising"], "locations": [{"country": "US", "city": "Cincinnati", "postal_code": "45202", "line_1": "2 P&G Plaza", "is_hq": true, "state": "Ohio"}, {"country": "AU", "city": "Melbourne", "postal_code": "3122", "line_1": "2nd Floor, 110 Church Street", "is_hq": true, "state": "Victoria"}, {"country": "AU", "city": "North Ryde", "postal_code": "2113", "line_1": "Level 4, 1 Innovation Road, Macquarie Park", "is_hq": true, "state": "New South Wales"}, {"country": "PR", "city": "Guaynabo", "postal_code": null, "line_1": "City View Plaza, Road 165 Km 1.2", "is_hq": true, "state": null}, {"country": "CA", "city": "Toronto", "postal_code": "M2N 6K8", "line_1": "4711 Yonge Street", "is_hq": true, "state": "Ontario"}, {"country": "AR", "city": "Munro", "postal_code": "B1605EJA", "line_1": "Gobenador Ugarte 3561", "is_hq": true, "state": "Buenos Aires"}, {"country": "BR", "city": "Sao Paulo", "postal_code": "04583-110", "line_1": "Avenida Dr. Chucri Zaidan 246-96", "is_hq": true, "state": "Sao Paulo"}, {"country": "CL", "city": "Santiago", "postal_code": null, "line_1": "Presidente Riesco 5335", "is_hq": true, "state": "Region Metropolitana"}, {"country": "CL", "city": "Santiago", "postal_code": null, "line_1": "Aysen 321, Macul", "is_hq": true, "state": "Region Metropolitana"}, {"country": "CO", "city": "Bogota", "postal_code": "110111", "line_1": "Carrera 7 No. 114-33, Edificio Scotiabank Piso 12", "is_hq": true, "state": "Distrito Capital"}, {"country": "CR", "city": "Santa Ana", "postal_code": null, "line_1": "Parque Empresarial Forum I, Distrito Tercero", "is_hq": true, "state": "San Jose"}, {"country": "EC", "city": "Quito", "postal_code": "170517", "line_1": "Ave. 6 De Diciembre Y Juan Boussingault Parroquia Benalcaza, Torre 6, Oficina 204", "is_hq": true, "state": "Pichincha"}, {"country": "GT", "city": "Guatemala City", "postal_code": "56510", "line_1": "Tercera (3\u00aa) Avenida Diez Gui\u00f3n Ochenta (10-80) De La Zona Diez (10)", "is_hq": true, "state": "Guatemala"}, {"country": "MX", "city": "Mexico City", "postal_code": "Cp 52772", "line_1": "Vialidad De La Barranca, N\u00famero 6. Colonia Ex Hacienda Jes\u00fas Del Monte Municipio Huixquilucan", "is_hq": true, "state": "Estado De M\u00e9xico"}, {"country": "PA", "city": "Panama City", "postal_code": null, "line_1": "Tower V, Business Park Costa Del Este", "is_hq": true, "state": "Panama"}, {"country": "PE", "city": "San Isidro", "postal_code": null, "line_1": "Calle Begonias # 415, Oficina 401", "is_hq": true, "state": "Lima"}, {"country": "VE", "city": "Caracas", "postal_code": "1080", "line_1": "Edif. P&g Calle Altagracia", "is_hq": true, "state": "Miranda"}, {"country": "CN", "city": "Beijing", "postal_code": "100005", "line_1": "Cofco Tower B, No 8 Indoor Street, Jianguo Gate , Dongcheng District", "is_hq": true, "state": "Beijing"}, {"country": "CN", "city": "Chengdu", "postal_code": "610042", "line_1": "Lippo Plaza (s) No. 62 Kehua Bei Rd.", "is_hq": true, "state": "Sichaunsheng"}, {"country": "CN", "city": "Guangzhou P.r.c", "postal_code": "510623", "line_1": "15f, Tower G, G. T. Land Plaza, No.16 Zhujiang East Road, Zhujiang New Town, Tianhe District", "is_hq": true, "state": "Guangdong"}, {"country": "CN", "city": "Guangzhou", "postal_code": "510620", "line_1": "12-16 Zhujiang East Street Town Tianhe District 16", "is_hq": true, "state": "Guangdong"}, {"country": "CN", "city": "Hangzhou", "postal_code": "310003", "line_1": "560 Yueming Road Bingjiang District", "is_hq": true, "state": "Zhejiang"}, {"country": "CN", "city": "Hong Kong", "postal_code": null, "line_1": "6f Shui On Centre, 6-8 Harbour Road, Wanchai, Hong Kong", "is_hq": true, "state": "Hong Kong"}, {"country": "CN", "city": "Nanjingshi", "postal_code": "210005", "line_1": "18 Zhongshan Road Deji Plaza Office Building 24th Floor", "is_hq": true, "state": "Jiangsu"}, {"country": "CN", "city": "Shanghai", "postal_code": "200120", "line_1": "Taiping Finance Tower, No.488, Middle Yincheng Rd. Pudong New District", "is_hq": true, "state": "Shanghai"}, {"country": "CN", "city": "Shanghai", "postal_code": "200124", "line_1": "Guos\u2019 Garden, No.728, South Ling Yan Rd.", "is_hq": true, "state": "Shanghai"}, {"country": "CN", "city": "Taipei", "postal_code": "11047", "line_1": "7f, No. 108, Sec. 5, Xin-yi Rd. Xin-yi Dist.", "is_hq": true, "state": "Taipei"}, {"country": "AT", "city": "Wien", "postal_code": null, "line_1": "Procter & Gamble Austria Zweigniederlassung Der Procter & Gamble Gmbh Icon Tower 24 Wiedner G\u00fcrtel 13", "is_hq": true, "state": "Wien"}, {"country": "BG", "city": "Sofia", "postal_code": "1404", "line_1": "Bulevard Bulgaria 69", "is_hq": true, "state": "Grad Sofiya"}, {"country": "HR", "city": "Zagreb", "postal_code": "10010", "line_1": "Business Center, Bani St. 110", "is_hq": true, "state": null}, {"country": "CZ", "city": "Prague", "postal_code": "186 00", "line_1": "Nile House, Karolinska St. 2", "is_hq": true, "state": "Tbd"}, {"country": "DK", "city": "Albertslund ", "postal_code": "2620", "line_1": "Stensmosevej 15", "is_hq": true, "state": null}, {"country": "FI", "city": "Espoo", "postal_code": "02600", "line_1": "Lars Sonckin Kaari 10, Nova Building, 3rd Floor", "is_hq": true, "state": null}, {"country": "FR", "city": "Dijon", "postal_code": "21070", "line_1": "18 C Boulevard Winston Churchil", "is_hq": true, "state": "Cote D'or"}, {"country": "FR", "city": "Asnieres-sur-seine", "postal_code": "92600", "line_1": "163 Quai Aulagnier", "is_hq": true, "state": null}, {"country": "GR", "city": "Athens", "postal_code": "15124", "line_1": "Agiou Konstantinou Street 49", "is_hq": true, "state": null}, {"country": "HU", "city": "Budapest", "postal_code": "1082", "line_1": "Kisfaludy Street 38", "is_hq": true, "state": null}, {"country": "IE", "city": "Dublin", "postal_code": null, "line_1": "Units E1 & E14, The Graan House", "is_hq": true, "state": null}, {"country": "IL", "city": "Tel Aviv", "postal_code": "6971070", "line_1": "6 Hanechoshet Street", "is_hq": true, "state": null}, {"country": "IT", "city": "Rome", "postal_code": "00144", "line_1": "Via Giorgio Ribotta 11", "is_hq": true, "state": null}, {"country": "KZ", "city": "Almaty", "postal_code": "050059", "line_1": "Furmanova 240g", "is_hq": true, "state": "Almaty"}, {"country": "LV", "city": "Riga", "postal_code": "1010", "line_1": "Sporta Str. 11 Riga 1013 Latvia", "is_hq": true, "state": null}, {"country": "NL", "city": "Rotterdam", "postal_code": "3013 AL", "line_1": "Delftse Poort, Weena 505", "is_hq": true, "state": null}, {"country": "PL", "city": "Warsaw", "postal_code": "02-673", "line_1": "Ul. Konstruktorska 13", "is_hq": true, "state": null}, {"country": "PL", "city": "Warsaw", "postal_code": "00-850", "line_1": "Prosta 20", "is_hq": true, "state": "Mazowieckie"}, {"country": "PT", "city": "Lisbon", "postal_code": "2774-527", "line_1": "Quinta Da Fonte - Rua Da Fonte Caspolima, 6-6a", "is_hq": true, "state": null}, {"country": "RO", "city": "Bucharest", "postal_code": "020335", "line_1": "Bvd Dimitrie Pompei, Nr 9-9a, Iride Business Park, Building No. 2, District 2", "is_hq": true, "state": null}, {"country": "RU", "city": "Moscow", "postal_code": "125171", "line_1": "Metropolis Business Centre, Leningradskoe Shosse, 16a Bldg. 2", "is_hq": true, "state": null}, {"country": "SK", "city": "Bratislava", "postal_code": "851 01", "line_1": "Aupark Tower, Einstainova St. 24", "is_hq": true, "state": null}, {"country": "ES", "city": "Madrid", "postal_code": "28108", "line_1": "Avenida De Bruselas N\u00ba 24, Alcobendas", "is_hq": true, "state": null}, {"country": "SE", "city": "Solna", "postal_code": "169 72", "line_1": "Telegrafgatan 4, 3 Floors", "is_hq": true, "state": null}, {"country": "CH", "city": "Geneva", "postal_code": "1213", "line_1": "47, Route De Saint-georges", "is_hq": true, "state": null}, {"country": "CH", "city": "Schlieren", "postal_code": "8952", "line_1": "Procter & Gamble Switzerland Sarl C/o Telion Building R\u00fctistrasse 26", "is_hq": true, "state": null}, {"country": "TR", "city": "Istanbul ", "postal_code": "34746", "line_1": "Begonya Sk., Nidakule Kuzey, C Kapisi, 3e 42 Barbaros Mahallesi, Atasehir", "is_hq": true, "state": null}, {"country": "UA", "city": "Kiev", "postal_code": "01033", "line_1": "Korolenkivska St House 4 5th Floor", "is_hq": true, "state": null}, {"country": "GB", "city": "Weybridge", "postal_code": "KT13 0XP", "line_1": "The Heights", "is_hq": true, "state": null}, {"country": "GB", "city": "Newcastle Upon Tyne", "postal_code": "NE27 0YQ", "line_1": "Silver Fox Way", "is_hq": true, "state": "Tyne & Wear"}, {"country": "GB", "city": "Harrogate", "postal_code": "HG2 8RA", "line_1": "Millen House, Hormbeam Business Park, Hornbeam Park Drive", "is_hq": true, "state": "Yorkshire"}, {"country": "GB", "city": "Tunbridge Wells", "postal_code": "TN2 3EH", "line_1": "Tunbridge Wells, 1 Lamberts Ro", "is_hq": true, "state": "Kent"}, {"country": "GB", "city": "Tunbridge Wells", "postal_code": "TN2 3EH", "line_1": "Tunbridge Wells, 1 Lamberts Ro", "is_hq": true, "state": "Kent"}, {"country": "ID", "city": "Jakarta", "postal_code": "10270", "line_1": "14th Floor, Senayan Square Complex, Sentral Senayan Iii", "is_hq": true, "state": "Jakarta"}, {"country": "JP", "city": "Tokyo", "postal_code": "104-0031", "line_1": "15f Kyobashi Edo Grand 2-2-1 Kyobashi, Chuo-ku", "is_hq": true, "state": "Tokyo"}, {"country": "MY", "city": "Petaling Jaya", "postal_code": "47810", "line_1": "Surian Tower 10th Floor, 1 Jalan Pju 7/3, Mutiara Damansara", "is_hq": true, "state": "Selangor Darul Ehsan"}, {"country": "MA", "city": "Casablanca", "postal_code": "20000", "line_1": "Marina, Tour Ivoire Iii Batiment C Etage 7", "is_hq": true, "state": "Casablanca"}, {"country": "NG", "city": "Lagos", "postal_code": null, "line_1": "Landmark House ,52/54 Isaac John Street, Gra Ikeja, Lagos, Nigeria.", "is_hq": true, "state": null}, {"country": "PK", "city": "Karachi", "postal_code": null, "line_1": "11th Floor Harbor Front, Dolmen City Hc-3 Block 4, Marine Drive, Clifton", "is_hq": true, "state": "Sindh"}, {"country": "PH", "city": "Bonifacio Global City", "postal_code": "1634", "line_1": "1f Seven/neo Building, 5th Avenue, Crescent Park West", "is_hq": true, "state": null}, {"country": "PH", "city": "Taguig", "postal_code": "1634", "line_1": "5th Avenue & 26th Street", "is_hq": true, "state": "National Capital Region"}, {"country": "SA", "city": "Al Khobar", "postal_code": "34423", "line_1": "Juffali Bldg King Fahd Rd Al Bandariyah", "is_hq": true, "state": null}, {"country": "SA", "city": "Jeddah", "postal_code": "23326", "line_1": "Prince Mohammed Bin Abdulaziz Street No. 2091", "is_hq": true, "state": null}, {"country": "SA", "city": "Riyadh", "postal_code": "11564", "line_1": "Prince Faisal Bin Turki Bin Abdulaziz St Riyadh Avenue Mall", "is_hq": true, "state": null}, {"country": "SG", "city": "Singapore", "postal_code": "138589", "line_1": "11 North Buona Vista Dr. #21-07 The Metropolis Tower 2", "is_hq": true, "state": "Singapore"}, {"country": "ZA", "city": "Johannesburg", "postal_code": null, "line_1": "15 Alice Lane", "is_hq": true, "state": null}, {"country": "KR", "city": "Seoul", "postal_code": "07326", "line_1": "37f, Three Ifc, Gukjegeumyung-ro 10, Yeongdeungpo-gu, Seoul", "is_hq": true, "state": "Korea"}, {"country": "TH", "city": "Bangkok", "postal_code": "10110", "line_1": "20th, 22nd Floors The Emporium Tower, No.622 Sukhumvit Road", "is_hq": true, "state": null}, {"country": "VN", "city": "Ho Chi Minh City", "postal_code": "70000", "line_1": "Plaza Saigon, 11th Floor, 39 Le Duan Street, District 1", "is_hq": true, "state": "Ho Chi Minh"}, {"country": "AE", "city": "Dubai", "postal_code": null, "line_1": "Jebel Ali Free Zone", "is_hq": true, "state": null}, {"country": "DE", "city": "Schwalbach Am Taunus", "postal_code": "65824", "line_1": "Sulzbacher Strasse 40", "is_hq": true, "state": null}, {"country": "EG", "city": "Cairo", "postal_code": null, "line_1": "Cairo Festival City - Building # 14D06 (B005) Southern zone business Park - Fifth District - New Cairo City", "is_hq": true, "state": null}], "name": "Procter & Gamble", "tagline": null, "universal_name_id": "procter-and-gamble", "profile_pic_url": "https://s3.us-west-000.backblazeb2.com/proxycurl/company/procter-and-gamble/profile?X-Amz-Algorithm=AWS4-HMAC-SHA256&X-Amz-Credential=0004d7f56a0400b0000000001%2F20241120%2Fus-west-000%2Fs3%2Faws4_request&X-Amz-Date=20241120T051940Z&X-Amz-Expires=3600&X-Amz-SignedHeaders=host&X-Amz-Signature=56edf1a3daf0cd178b7b69ca8fa9b02f2a84c2e584bb4f160afc94eb43e85264", "background_cover_image_url": "https://s3.us-west-000.backblazeb2.com/proxycurl/company/procter-and-gamble/cover?X-Amz-Algorithm=AWS4-HMAC-SHA256&X-Amz-Credential=0004d7f56a0400b0000000001%2F20241120%2Fus-west-000%2Fs3%2Faws4_request&X-Amz-Date=20241120T051940Z&X-Amz-Expires=3600&X-Amz-SignedHeaders=host&X-Amz-Signature=e8abe37abd1661466fd1d76f0bfa03e5424b96f1983d7791c23d86a595ab3739", "search_id": "1116", "similar_companies": [{"name": "Unilever", "link": "https://www.linkedin.com/company/unilever/", "industry": "Manufacturing", "location": null}, {"name": "Nestl\u00e9", "link": "https://www.linkedin.com/company/nestle-s-a-/", "industry": "Food and Beverage Services", "location": null}, {"name": "Johnson & Johnson", "link": "https://www.linkedin.com/company/johnson-&-johnson/", "industry": "Hospitals and Health Care", "location": null}, {"name": "PepsiCo", "link": "https://www.linkedin.com/company/pepsico/", "industry": "Food and Beverage Services", "location": null}, {"name": "L'Or\u00e9al", "link": "https://www.linkedin.com/company/lor%C3%A9al/", "industry": "Personal Care Product Manufacturing", "location": null}, {"name": "The Coca-Cola Company", "link": "https://www.linkedin.com/company/the-coca-cola-company/", "industry": "Food and Beverage Services", "location": null}, {"name": "Mondel\u0113z International", "link": "https://www.linkedin.com/company/mondelezinternational/", "industry": "Food and Beverage Manufacturing", "location": null}, {"name": "Amazon", "link": "https://www.linkedin.com/company/amazon/", "industry": "Software Development", "location": null}, {"name": "Colgate-Palmolive", "link": "https://www.linkedin.com/company/colgate-palmolive/", "industry": "Manufacturing", "location": null}, {"name": "Google", "link": "https://www.linkedin.com/company/google/", "industry": "Software Development", "location": null}, {"name": "Bayer", "link": "https://www.linkedin.com/company/bayer/", "industry": "Chemical Manufacturing", "location": null}, {"name": "Pfizer", "link": "https://www.linkedin.com/company/pfizer/", "industry": "Pharmaceutical Manufacturing", "location": null}, {"name": "Deloitte", "link": "https://www.linkedin.com/company/deloitte/", "industry": "Business Consulting and Services", "location": null}, {"name": "Danone", "link": "https://www.linkedin.com/company/danone/", "industry": "Food and Beverage Manufacturing", "location": null}, {"name": "Henkel", "link": "https://www.linkedin.com/company/henkel/", "industry": "Manufacturing", "location": null}, {"name": "Reckitt", "link": "https://www.linkedin.com/company/reckitt/", "industry": "Manufacturing", "location": null}, {"name": "Mars", "link": "https://www.linkedin.com/company/mars/", "industry": "Manufacturing", "location": null}, {"name": "Microsoft", "link": "https://www.linkedin.com/company/microsoft/", "industry": "Software Development", "location": null}, {"name": "GSK", "link": "https://www.linkedin.com/company/gsk/", "industry": "Pharmaceutical Manufacturing", "location": null}, {"name": "IBM", "link": "https://www.linkedin.com/company/ibm/", "industry": "IT Services and IT Consulting", "location": null}], "affiliated_companies": [{"name": "Procter & Gamble Malaysia", "link": "https://www.linkedin.com/showcase/procter-&-gamble-malaysia/", "industry": "Manufacturing", "location": null}, {"name": "Procter & Gamble Mexico", "link": "https://www.linkedin.com/showcase/procter-gamble-mexico/", "industry": "Consumer Goods", "location": null}, {"name": "P&G Singapore Innovation Center (SgIC)", "link": "https://www.linkedin.com/company/pgsingapore-innovation-center/", "industry": "Manufacturing", "location": null}, {"name": "Procter & Gamble Israel", "link": "https://www.linkedin.com/showcase/procter-gamble-israel/", "industry": "Consumer Goods", "location": null}, {"name": "Gillette", "link": "https://www.linkedin.com/showcase/gillette/", "industry": "Manufacturing", "location": null}, {"name": "Pampers Professional", "link": "https://www.linkedin.com/company/pampers-professional/", "industry": "Manufacturing", "location": null}, {"name": "Procter & Gamble Asia Pacific, Middle East and Africa", "link": "https://www.linkedin.com/showcase/procter-gamble-ama/", "industry": "Consumer Goods", "location": null}, {"name": "Procter & Gamble Italia", "link": "https://www.linkedin.com/showcase/-procter-&-gamble-italia/", "industry": "Manufacturing", "location": null}, {"name": "Procter & Gamble Australia and New Zealand", "link": "https://www.linkedin.com/showcase/proctergambleaustraliaandnewzealand/", "industry": "Consumer Services", "location": null}, {"name": "Procter & Gamble Pakistan", "link": "https://www.linkedin.com/showcase/procter-&-gamble-pakistan/", "industry": "Manufacturing", "location": null}, {"name": "Procter & Gamble UK & Ireland", "link": "https://www.linkedin.com/showcase/procter-gamble-uk-ireland/", "industry": "Consumer Goods", "location": null}, {"name": "P&G Signal360", "link": "https://www.linkedin.com/showcase/pgsignal360/", "industry": "Consumer Goods", "location": null}, {"name": "Procter & Gamble Espa\u00f1a", "link": "https://www.linkedin.com/showcase/proctergamble-espa%C3%B1a/", "industry": "Manufacturing", "location": null}, {"name": "Procter & Gamble Vietnam", "link": "https://www.linkedin.com/showcase/procter-&-gamble-vietnam/", "industry": "Consumer Goods", "location": null}, {"name": "Procter & Gamble France", "link": "https://www.linkedin.com/showcase/procter-gamble-france/", "industry": "Manufacturing", "location": null}, {"name": "Crest + Oral B for Dental Professionals", "link": "https://www.linkedin.com/showcase/crest-oral-b-for-dental-professionals/", "industry": "Manufacturing", "location": null}, {"name": "P&G Professional Deutschland", "link": "https://www.linkedin.com/showcase/p-g-professional-deutschland/", "industry": "Personal Care Product Manufacturing", "location": null}, {"name": "Ariel India", "link": "https://www.linkedin.com/showcase/ariel-india/", "industry": "Manufacturing", "location": null}, {"name": "P&G Beauty", "link": "https://www.linkedin.com/company/pgbeauty/", "industry": "Personal Care Product Manufacturing", "location": null}, {"name": "Procter & Gamble Nederland", "link": "https://www.linkedin.com/showcase/procter-gamble-nederland/", "industry": "Manufacturing", "location": null}, {"name": "Procter & Gamble Deutschland", "link": "https://www.linkedin.com/showcase/procter-gamble-deutschland/", "industry": "Manufacturing", "location": null}, {"name": "Procter & Gamble Portugal", "link": "https://www.linkedin.com/showcase/procter-gamble-portugal/", "industry": "Consumer Goods", "location": null}, {"name": "Procter & Gamble India", "link": "https://www.linkedin.com/showcase/procter-gamble-india/", "industry": "Manufacturing", "location": null}, {"name": "P&G Professional Espa\u00f1a", "link": "https://www.linkedin.com/showcase/p-g-professional-espa%C3%B1a/", "industry": "Manufacturing", "location": null}, {"name": "Procter & Gamble Philippines", "link": "https://www.linkedin.com/showcase/procter-gamble-philippines/", "industry": "Manufacturing", "location": null}], "updates": [{"article_link": "https://www.linkedin.com/posts/procter-and-gamble_pgheritage-activity-7259157480675368960-eHtB", "image": "https://media.licdn.com/dms/image/v2/D5610AQGaWU-Kgqff5A/image-shrink_1280/image-shrink_1280/0/1730718001083?e=1731488400&v=beta&t=vqLT8OytuMMaajEM7-s-OdB7OsdtEuf76yvNzgy3O5k", "posted_on": {"day": 5, "month": 11, "year": 2024}, "text": "One consumer insight led to a game-changing shift for one of our brands.\n\nWhen we launched Gain as a stain-fighting detergent almost 60 years ago, it struggled for two decades to compete with Tide.\n\nBut we didn't give up. A key consumer insight revealed, \"Sometimes you can see better with your nose than your eyes.\"\n\nEmbracing this insight, we shifted Gain's benefit to scent, and the brand experienced one of the fastest rises in P&G history, captivating consumers with an array of forms and delightful fragrances. Today, the brand still receives continuous praise from consumers for its scents.\n\nFor over 100 years, P&G Analytics & Insights has been at the forefront of understanding consumers. Learn more about our century of curiosity: https://lnkd.in/gNuP9z-9\n\n#PGHeritage", "total_likes": 302}, {"article_link": "https://www.linkedin.com/posts/procter-and-gamble_we-dug-up-this-pepto-bismol-skeleton-squad-activity-7257692837100609537-Gksn", "image": "https://media.licdn.com/dms/image/v2/D5610AQGxwR0JoLhDYQ/image-shrink_1280/image-shrink_1280/0/1730368803279?e=1731488400&v=beta&t=UiZyhp25dflHp07q-K4_Sh2sIYfkgFGqK36d0Y-lDWk", "posted_on": {"day": 1, "month": 11, "year": 2024}, "text": "We dug up this Pepto Bismol skeleton squad for a Halloween throwback. \n\nThis ad ran in 2001 across the U.S. and still gives us a thrill. \ud83d\udc80\ud83c\udf83 \n\nLearn more about P&G's history at https://lnkd.in/eKUka6s", "total_likes": 183}, {"article_link": "https://www.linkedin.com/posts/procter-and-gamble_pginnovation-activity-7257330444101115904-qys9", "image": "https://media.licdn.com/dms/image/v2/D5610AQG3j9oIs58-4Q/image-shrink_1280/image-shrink_1280/0/1730282402655?e=1731488400&v=beta&t=W7Doc-oE2PEt7XRrVjpCuHwyOcwWrMpnM665qdVw674", "posted_on": {"day": 31, "month": 10, "year": 2024}, "text": "Charmin is dedicated to enhancing consumer experiences, believing even small advancements can make a big difference. \n\nThe brand's latest upgrade addresses a relatable consumer frustration \u2014 the need to wipe more to feel confidently clean. \n\nCharmin Ultra Strong includes a deeper diamond weave texture that's designed to clean more efficiently, so consumers can do more with less. \n\n#PGInnovation", "total_likes": 134}, {"article_link": "https://www.linkedin.com/posts/procter-and-gamble_pg-how-pgs-focus-on-irresistible-superiority-activity-7251645436829028353-u9jS", "image": null, "posted_on": {"day": 16, "month": 10, "year": 2024}, "text": "How can everyday products make a positive impact?\u00a0\n\u00a0\nAt P&G, we are working to innovate better products that help people save resources and solve their everyday problems. Hear from Virginie Helias about how we\u2019re bringing this to life.", "total_likes": 146}, {"article_link": "https://www.linkedin.com/posts/procter-and-gamble_today-pg-reported-results-for-the-first-activity-7253014205908295680-aUmm", "image": "https://media.licdn.com/dms/image/v2/D5610AQERXsGohBV0-g/image-shrink_1280/image-shrink_1280/0/1729253337158?e=1731488400&v=beta&t=Y_zuxBpzWZgaIAbYez_f51xHrmFwC0lgY_waIvtJlt0", "posted_on": {"day": 23, "month": 10, "year": 2024}, "text": "Today P&G reported results for the first quarter of fiscal 2025. Execution of our integrated strategy delivered another quarter of solid earnings and cash results, which enable us to maintain our guidance ranges for Fiscal Year 2025. Overall, good performance in what continues to be a challenging economic and geopolitical environment.  \n\n\"Our organic sales growth, earnings and cash results in the first quarter keep us on track to deliver within our guidance ranges on all key financial metrics for the fiscal year,\" said Jon Moeller, Chairman of the Board, President and CEO. \"We remain committed to our integrated growth strategy of a focused product portfolio of daily use categories where performance drives brand choice, superiority \u2014 across product performance, packaging, brand communication, retail execution and consumer and customer value \u2014 productivity, constructive disruption and an agile and accountable organization. We have confidence this remains the right strategy to deliver balanced growth and value creation.\"\n\nFor a deeper dive into the numbers announced today read our press release: https://lnkd.in/gMXNHk-n\n\nSlides and the webcast replay of earnings results are available at www.pginvestor.com/event.", "total_likes": 1460}, {"article_link": "https://www.linkedin.com/posts/procter-and-gamble_pg-peakathon-2024-activity-7250001829747458048-oKOv", "image": null, "posted_on": {"day": 16, "month": 10, "year": 2024}, "text": "Last Chance! Register for the #PGPEAKathon Before October 11th!\n\nAre you a student ready to make a global impact? The clock is ticking! Don't miss your chance to join the #PGPEAKathon and compete with top student teams worldwide. Deadline to register your team is October 11th.\n\nWinners will advance to the Singapore Regional Finals, meet industry leaders, and fast-track their P&G applications.\n\nKey Dates:\n\u25baMetaverse Quest: October 21 - November 1, 2024\n\u25baLocal Selection: November to mid-December 2024 (dates vary by country)\n\u25baAMA Regional Finals: February 2025 (Asia-Pacific, Middle East, Africa)\n\nAct now & register your team for the #PGPEAKathon today!\nhttps://lnkd.in/drSyizi3\n\n#PGPEAKathon #StudentInnovation #PGCareers", "total_likes": 33}], "follower_count": 8035429, "acquisitions": null, "exit_data": null, "extra": null, "funding_data": [], "categories": null, "customer_list": null}
