{"linkedin_internal_id": "5140", "description": "Virtusa Corporation provides digital engineering and technology services to Forbes Global 2000 companies worldwide. Our Engineering First approach ensures we can execute all ideas and creatively solve pressing business challenges. With industry expertise and empowered agile teams, we prioritize execution early in the process for impactful results. We combine logic, creativity and curiosity to build, solve, and create. Every day, we help clients engage with new technology paradigms, creatively building solutions that solve their most pressing business challenges and move them to the forefront of their industry. \n\nJoin us at Virtusa, an equal opportunity employer that values inclusion and diversity. Check out Virtusa.com/careers to find out more.", "website": "http://www.virtusa.com", "industry": "IT Services and IT Consulting", "company_size": [10001, null], "company_size_on_linkedin": 18459, "hq": {"country": "US", "city": "Southborough", "postal_code": "01772", "line_1": "132 Turnpike Road Suite 300", "is_hq": true, "state": "MA"}, "company_type": "PRIVATELY_HELD", "founded_year": 1996, "specialities": ["IT Consulting", "Technology and Outsourcing Services", "Application Maintenance", "Development", "Systems Integration", "Digital Transformation", "Digital Engineering", "Cloud Transformation", "Digital Engineering", "Emerging Technology"], "locations": [{"country": "US", "city": "Southborough", "postal_code": "01772", "line_1": "132 Turnpike Road Suite 300", "is_hq": true, "state": "MA"}, {"country": "US", "city": "New York", "postal_code": "10281", "line_1": "225 Liberty Street 34th Floor", "is_hq": false, "state": "NY"}, {"country": "DE", "city": "Munich", "postal_code": "81541", "line_1": "Welfenstra\u00dfe 22", "is_hq": false, "state": "Bavaria"}, {"country": "GB", "city": "London", "postal_code": "EC2V 5AY", "line_1": "26 Finsbury Square", "is_hq": false, "state": null}, {"country": "LK", "city": "Colombo", "postal_code": null, "line_1": "752, Dr Danister De Silva Mawatha", "is_hq": false, "state": null}, {"country": "US", "city": "Troy", "postal_code": "12180", "line_1": "400 Jordan Road Suite 301", "is_hq": false, "state": "NY"}, {"country": "US", "city": "Indianapolis", "postal_code": "46202", "line_1": "1401 North Meridian Street", "is_hq": false, "state": "IN"}, {"country": "US", "city": "Windsor", "postal_code": "06095", "line_1": "100 Northfield Drive", "is_hq": false, "state": "CT"}, {"country": "US", "city": "Fremont", "postal_code": "94555", "line_1": "6627 Dumbarton Circle", "is_hq": false, "state": "CA"}, {"country": "CA", "city": "Toronto", "postal_code": "M5H 1T1", "line_1": "120 Adelaide Street West Suite 800", "is_hq": false, "state": "ON"}, {"country": "IN", "city": "Chennai", "postal_code": null, "line_1": "1/124 Mount Poonamalee Road, Shivaji Garden Moonlight Stop, Nandambakkam Post, Manapakkam", "is_hq": false, "state": null}, {"country": "IN", "city": "Bengaluru", "postal_code": null, "line_1": "Sarjapur-Marathahalli Outer Ring Road, Deverabeesanahalli Village, Varthur Hobli,", "is_hq": false, "state": null}, {"country": "IN", "city": "Hyderabad", "postal_code": null, "line_1": "Sy No. 115 / Part, Plot No. 10, TSIIC Limited, SEZ Nanakramguda Village, Serilingampalli Mandal, Ranga Reddy District", "is_hq": false, "state": null}, {"country": "IN", "city": "Mumbai", "postal_code": null, "line_1": "Unit 174 & 184, SDF VI, SEEPZ, Andheri Eas", "is_hq": false, "state": null}, {"country": "SG", "city": "Singapore", "postal_code": null, "line_1": "3 Changi Business Park Vista Akzonobel House", "is_hq": false, "state": null}, {"country": "CH", "city": "Neuch\u00e2tel", "postal_code": "2001", "line_1": "49, Avenue de la Gare Case Postale 2067, 2001", "is_hq": false, "state": "ZH"}, {"country": "DE", "city": "Eschborn", "postal_code": "65760", "line_1": "Eschborn Business Park, 2nd floor, Mergenthaler Allee 15-21", "is_hq": false, "state": "Eschborn"}, {"country": "IN", "city": "Gurugram", "postal_code": "122016", "line_1": "1 Udyog Vihar Phase I, SP Infocity, Floor 1, Tower B, Dundahera, Plot 243", "is_hq": false, "state": "Haryana"}, {"country": "AU", "city": "Sydney", "postal_code": "2000", "line_1": "31 Market Street, Level 12", "is_hq": false, "state": "NSW"}, {"country": "IN", "city": "Hyderabad ", "postal_code": "500019", "line_1": "203, Financial District Manikonda", "is_hq": false, "state": "Telangana"}, {"country": "MY", "city": "Selangor", "postal_code": "47400", "line_1": "1 Jalan SS21/58, Damansara Uptown, No. 603, Level 6 Petaling Jaya ,", "is_hq": false, "state": "Selangor"}, {"country": "CA", "city": "Halifax", "postal_code": "B3J 3M8", "line_1": "1701 Hollis St Suite 800", "is_hq": false, "state": "Nova Scotia"}, {"country": "AT", "city": "Vienna", "postal_code": "1010", "line_1": "Tuchlauben 7a", "is_hq": false, "state": "Australia"}, {"country": "AU", "city": "Melbourne", "postal_code": "3000", "line_1": "570 Bourke Street, Level 24, 570 \u2013 Bourke Street", "is_hq": false, "state": "VIC"}, {"country": "AE", "city": "Dubai", "postal_code": null, "line_1": "Dubai Internet City Room 306, Building 3,", "is_hq": false, "state": "DU"}, {"country": "IN", "city": "Thane (W)", "postal_code": "400604", "line_1": "Road no. 22, Wagle Estate, 2nd Floor, Plot E-7 203, Dosti Pinnacle", "is_hq": false, "state": "Maharashtra"}, {"country": "IN", "city": "Pune", "postal_code": "411057", "line_1": "Mississippi Embassy Tech Zone, Plot No. 3A, Hinjewadi Phase II, Hinjewadi Rajiv Gandhi Infotech Park 2nd Floor, Wing-B Block", "is_hq": false, "state": "Maharashtra"}, {"country": "HU", "city": "Budapest", "postal_code": "1054", "line_1": "Regus House, Klmn Imre utca 1", "is_hq": false, "state": "Hungary"}, {"country": "QA", "city": "Doha ", "postal_code": null, "line_1": "Al-Jaidah Square Building, Airport Road, Office 137, 1st Floor", "is_hq": false, "state": " Qatar"}, {"country": "NL", "city": "Utrecht ", "postal_code": "3511SB", "line_1": "Leidseveer 2", "is_hq": false, "state": "Utrecht"}, {"country": "CA", "city": "Toronto", "postal_code": "M5X 2A2", "line_1": "130 King St W Suite 1800", "is_hq": false, "state": "Ontario"}, {"country": "US", "city": "Milpitas", "postal_code": "95035", "line_1": "888 Tasman Dr Suite 210", "is_hq": false, "state": "California"}], "name": "Virtusa", "tagline": "Business transformation that lasts starts with Engineering First.", "universal_name_id": "virtusa", "profile_pic_url": "https://s3.us-west-000.backblazeb2.com/proxycurl/company/virtusa/profile?X-Amz-Algorithm=AWS4-HMAC-SHA256&X-Amz-Credential=0004d7f56a0400b0000000001%2F20241120%2Fus-west-000%2Fs3%2Faws4_request&X-Amz-Date=20241120T052010Z&X-Amz-Expires=3600&X-Amz-SignedHeaders=host&X-Amz-Signature=cf51d91921f807e16b6530743c8c1ed02e362e43894153baa7afc7c6fde45dc3", "background_cover_image_url": "https://s3.us-west-000.backblazeb2.com/proxycurl/company/virtusa/cover?X-Amz-Algorithm=AWS4-HMAC-SHA256&X-Amz-Credential=0004d7f56a0400b0000000001%2F20241120%2Fus-west-000%2Fs3%2Faws4_request&X-Amz-Date=20241120T052010Z&X-Amz-Expires=3600&X-Amz-SignedHeaders=host&X-Amz-Signature=a1a192bab50961da0859d9233b3d69c54198173a60a2a4f45fddb2f0e32f08fe", "search_id": "5140", "similar_companies": [{"name": "Cognizant", "link": "https://www.linkedin.com/company/cognizant", "industry": "IT Services and IT Consulting", "location": "Teaneck, New Jersey"}, {"name": "Deloitte", "link": "https://www.linkedin.com/company/deloitte", "industry": "Business Consulting and Services", "location": null}, {"name": "Hexaware Technologies", "link": "https://in.linkedin.com/company/hexaware-technologies", "industry": "IT Services and IT Consulting", "location": "Navi Mumbai, Maharashtra"}, {"name": "Tata Consultancy Services", "link": "https://in.linkedin.com/company/tata-consultancy-services", "industry": "IT Services and IT Consulting", "location": "Mumbai, Maharashtra"}, {"name": "HCLTech", "link": "https://in.linkedin.com/company/hcltech", "industry": "IT Services and IT Consulting", "location": "Noida, Uttar Pradesh"}, {"name": "LTIMindtree", "link": "https://in.linkedin.com/company/ltimindtree", "industry": "IT Services and IT Consulting", "location": "Mumbai, MH"}, {"name": "Capgemini", "link": "https://fr.linkedin.com/company/capgemini", "industry": "Business Consulting and Services", "location": "Paris, France"}, {"name": "Tech Mahindra", "link": "https://in.linkedin.com/company/tech-mahindra", "industry": "IT Services and IT Consulting", "location": "Pune, Maharashtra"}, {"name": "Infosys", "link": "https://in.linkedin.com/company/infosys", "industry": "IT Services and IT Consulting", "location": "Bangalore, Karnataka"}, {"name": "Wipro", "link": "https://in.linkedin.com/company/wipro", "industry": "IT Services and IT Consulting", "location": "Bangalore, Karnataka"}], "affiliated_companies": [], "updates": [{"article_link": null, "image": "https://media.licdn.com/dms/image/v2/D4D10AQF0hVaaLKZmGg/image-shrink_1280/image-shrink_1280/0/1731088801350?e=2147483647&v=beta&t=j-2_AnIx5nxG_gPO6CcQL8J9hxg9y_-EnREJDGNvbmE", "posted_on": {"day": 8, "month": 11, "year": 2024}, "text": "Why choose Virtusa for banking transformation? With over 25 years of domain expertise and recognition as a major contender in Everest Group\u2019s Open Banking IT Services PEAK Matrix\u00ae Assessment 2024, Virtusa is a trusted partner for financial institutions navigating digital transformation. Accelerate your banking operations and future-proof your business with Virtusa. Learn more: https://splr.io/6042Wbiip \n\n#EngineeringFirst #OpenBanking #BFSI #OpenBanking #EmbeddedFinance", "total_likes": 8}, {"article_link": null, "image": "https://media.licdn.com/dms/image/v2/D4D10AQHBMAw4gazW2A/image-shrink_1280/image-shrink_1280/0/1731083401695?e=2147483647&v=beta&t=T94BQH3KV3jOv0YeEi4P9p0tpC269W4B40ksHi88o6M", "posted_on": {"day": 8, "month": 11, "year": 2024}, "text": "From application engineering to cloud transformation and digital assurance, Virtusa empowers businesses to innovate, transform, and stay ahead. \n\nExplore our domain capabilities and see how we can help drive your digital journey. Learn more: https://splr.io/6042WbiYY \n\n#EngineeringFirst #Innovation #DigitalTransformation #EngineeringExcellence", "total_likes": 6}, {"article_link": null, "image": null, "posted_on": {"day": 8, "month": 11, "year": 2024}, "text": "Mark your calendars for the ServiceNow World Forum 2024 in Toronto on November 13. Virtusa, as an Elite Partner, will be at booth No. 23 and is set to highlight how its collaboration with ServiceNow can drive meaningful change through AI. What are you most excited to learn about AI transformation at the event? Learn more: https://splr.io/6048Wbcsg\n\n#ServiceNowWorldForum #EngineeringFirst #AI #OperationalExcellence #Toronto2024", "total_likes": 7}, {"article_link": null, "image": "https://media.licdn.com/dms/image/v2/D4D10AQHLYGRMQWdlRw/videocover-high/videocover-high/0/1731069005972?e=2147483647&v=beta&t=xHtvNFNRP9Pyiytq9RrL7FRmuKTjw39mTYP_MvU0ric", "posted_on": {"day": 8, "month": 11, "year": 2024}, "text": "Post-architecture modernization, our banking client saved over $15 million annually. Discover how Virtusa's solutions drive cost efficiency and scalability in the corporate banking sector: https://splr.io/6045WZfAT\n\n#EngineeringFirst #GlobalBanking #FinancialInnovation #VirtusaSuccess #CorporateBanking", "total_likes": 7}, {"article_link": null, "image": "https://media.licdn.com/dms/image/v2/D4D10AQETNA-TKwR-tA/videocover-high/videocover-high/0/1731065409908?e=2147483647&v=beta&t=8oSeV70g5VSvyIemYJtrcxcyClF6jCraPtvqtySyYO4", "posted_on": {"day": 8, "month": 11, "year": 2024}, "text": "Discover how a leading UAE bank partnered with Virtusa to transform their business operations with Microsoft Power Platform. By automating tasks, improving cloud security, and providing valuable insights, they enhanced their ROI by 75%, streamlined workflows with AI agility, achieved faster turnaround times, and acheived a lot more. Learn more: https://splr.io/6044WZ7Pu \n\n Microsoft Azure | #EngineeringFirst #PowerPlatform #DocumentManagement #LowCodeNoCode", "total_likes": 25}, {"article_link": null, "image": "https://media.licdn.com/dms/image/v2/D4D10AQE9WSaOPg4j-w/image-shrink_1280/image-shrink_1280/0/1731049201813?e=2147483647&v=beta&t=MMHfTkxkMo0ae3JrXm869AZo3yVyqVXZlf_A0DOJs4I", "posted_on": {"day": 8, "month": 11, "year": 2024}, "text": "Thank you to everyone who joined Virtusa at ServiceNow World Forum 2024! Here are a few snippets from the event as our experts explored how artificial intelligence and automation transform business workflows. \n\nStay updated and explore more with Virtusa\u2019s AI and ServiceNow solutions.\n\n#EngineeringFirst #ServiceNowWorldForum2024 #ArtificialIntelligence #Automation", "total_likes": 210}, {"article_link": null, "image": "https://media.licdn.com/dms/image/v2/D4D10AQE8qNom1GkQUw/videocover-high/videocover-high/0/1731002403923?e=2147483647&v=beta&t=ZznI46ZQRs-_0mqwAE88vGEVU8RyHiIhuNazsHj3e3g", "posted_on": {"day": 8, "month": 11, "year": 2024}, "text": "The Internet of Things (IoT) is transforming industries across the globe, and the insurance sector is no exception. From innovative products to enhanced risk assessment and improved customer experiences, IoT is reshaping how insurers operate. Dive into our latest article to discover the opportunities and challenges IoT brings to the insurance landscape: https://splr.io/6042WZAG4\n\n#EngineeringFirst #DigitalInnovation #IoT #Insurance #InsuranceInnovation", "total_likes": 17}, {"article_link": null, "image": "https://media.licdn.com/dms/image/v2/D4D10AQEwVV63XVYCDg/videocover-high/videocover-high/0/1730995205875?e=2147483647&v=beta&t=QY1gBoLlphhjLZqMCXGMrLpdEHmYYDx6Sc79EaUvlU4", "posted_on": {"day": 8, "month": 11, "year": 2024}, "text": "Connect with Virtusa at AWS re:Invent in Las Vegas from December 2-6! \n\nMeet our experts to discuss migrating and modernizing your legacy applications to optimize, innovate, and accelerate with the cloud. With Virtusa\u2019s Engineering First approach and longstanding partnership with AWS, we\u2019ll help you reinvent your enterprise and turn your imagination into reality. \n\nStop by our booth #598 to learn more: https://splr.io/6044WZ7zi\n\n#EngineeringFirst #VirtusaatAWSreInvent #AWSreInvent", "total_likes": 25}, {"article_link": null, "image": "https://media.licdn.com/dms/image/v2/D4D10AQHoJllaJ_TGoQ/ads-video-thumbnail_720_1280/ads-video-thumbnail_720_1280/0/1730991604712?e=2147483647&v=beta&t=rOdTs-fJ72Ch75RDB9TyfpSi9quV7OB4J4iPS-T3Jdw", "posted_on": {"day": 8, "month": 11, "year": 2024}, "text": "Witness the digital transformation of a leading healthcare firm from legacy systems to agile microservices with Virtusa. Our approach streamlined workflows, optimized resource usage, and improved overall operational efficiency for our client. Learn more: https://splr.io/6042WZ7rm\n\nMicrosoft Microsoft Partner | #EngineeringFirst #Azure #HealthcareTech #CloudComputing #DigitalHealth", "total_likes": 11}, {"article_link": null, "image": "https://media.licdn.com/dms/image/v2/D4D10AQF2e0i-Z3uHlQ/image-shrink_1280/image-shrink_1280/0/1730988002005?e=2147483647&v=beta&t=gx_IR17kTD24-ea0qZ04Mcj_RjjfHdaDQzuC8B9GhTI", "posted_on": {"day": 8, "month": 11, "year": 2024}, "text": "We're at booth #10 at the Javits Center in New York, showcasing how AI-driven workflows can optimize productivity. Discover cutting-edge solutions in service operations, risk management, and automation. Meet us today to explore how we can transform your business.\n\n#EngineeringFirst #ServiceNowWorldForum #ArtificialIntelligence #Automation", "total_likes": 22}], "follower_count": 1210624, "acquisitions": null, "exit_data": null, "extra": null, "funding_data": [], "categories": null, "customer_list": null}
